X,Y,OBJECTID,County,Name,City,Latitude,Longitude,Gasoline,Diesel
-84.217476,35.025123,1,Mecklenburg,7-Eleven,Charlotte,35.025123,-84.217476,12,6
-84.217476,35.025123,2,Cherokee,Payne's Tire & Grocery,Murphy,35.025123,-84.217476,4,1
-84.142556,35.153443,3,Cherokee,Shooks Marina,Murphy,35.153443,-84.142556,1,0
-84.101666,35.033623,4,Cherokee,Hot Spot #2008,Murphy,35.033623,-84.101666,12,2
-84.094696,35.120523,5,Cherokee,Duke's Hideaway Marina,Murphy,35.120523,-84.094696,1,0
-84.063316,35.064023,6,Cherokee,Murphy USA #6610,Murphy,35.064023,-84.063316,24,2
-84.046066,35.108693,7,Cherokee,Graves Grocery,Murphy,35.108693,-84.046066,4,1
-84.03734,35.09713,8,Cherokee,Joe Brown Convenience,Murphy,35.09713,-84.03734,13,1
-84.036436,35.094623,9,Cherokee,Dockery's,Murphy,35.094623,-84.036436,0,0
-84.035696,35.079823,10,Cherokee,Fat Back's Citgo,Murphy,35.079823,-84.035696,24,2
-84.025606,35.095463,11,Cherokee,Big D Convenience Store #600,Murphy,35.095463,-84.025606,4,0
-84.016616,35.098333,12,Cherokee,Sports Convenience,Murphy,35.098333,-84.016616,36,4
-83.964336,35.070603,13,Cherokee,Quick Pantry #105,Murphy,35.070603,-83.964336,12,1
-83.964306,35.068273,14,Cherokee,Wag-a-Bag Convenience,Murphy,35.068273,-83.964306,12,1
-83.959096,35.040233,15,Clay,Clay's Corner,Brasstown,35.040233,-83.959096,4,1
-83.946726,35.092083,16,Cherokee,Peachtree Corner Express,Murphy,35.092083,-83.946726,12,4
-83.925516,35.172413,17,Cherokee,Marble Quick Pantry #106,Marble,35.172413,-83.925516,18,7
-83.919636,35.466663,18,Swain,Deals Gap Motorcycle Resort,Robbinsville,35.466663,-83.919636,2,0
-83.893646,35.054763,19,Clay,Hill's Store,Hayesville,35.054763,-83.893646,8,4
-83.859806,35.321413,20,Graham,Thunder Mountain General Store,Robbinsville,35.321413,-83.859806,2,1
-83.858126,35.365773,21,Graham,Santeelah Marina,Robbinsville,35.365773,-83.858126,2,0
-83.856866,35.425663,22,Graham,Outland Gas & Grocery,Robbinsville,35.425663,-83.856866,2,0
-83.846166,35.199513,23,Cherokee,SHIV Store,Andrews,35.199513,-83.846166,24,2
-83.839596,35.202853,24,Cherokee,Aztex #207,Andrews,35.202853,-83.839596,12,1
-83.831126,35.035423,25,Clay,Big D Convenience Store #280,Hayesville,35.035423,-83.831126,4,1
-83.827556,35.205503,26,Cherokee,Quick Pantry #103,Andrews,35.205503,-83.827556,18,2
-83.819826,35.035093,27,Clay,The Local Market #202,Hayesville,35.035093,-83.819826,36,4
-83.81879,35.43557,28,Graham,Fontana Pit Stop,Fontana Dam,35.43557,-83.81879,2,1
-83.815966,35.034033,29,Clay,Ingles #116,Hayesville,35.034033,-83.815966,36,4
-83.814207,35.340619,30,Graham,Skyway Convenience,Robbinsville,35.340619,-83.814207,20,2
-83.808116,35.325643,31,Graham,Eller's Fuel & Wrecker Service,Robbinsville,35.325643,-83.808116,4,1
-83.805096,35.326783,32,Graham,Time Out Market #19,Robbinsville,35.326783,-83.805096,18,3
-83.802516,35.324993,33,Graham,Crown Food Mart,Robbinsville,35.324993,-83.802516,36,1
-83.799776,35.325053,34,Graham,Sawyer's Market,Robbinsville,35.325053,-83.799776,6,4
-83.798216,35.313503,35,Graham,Aztex #203,Robbinsville,35.313503,-83.798216,5,2
-83.793786,35.441613,36,Graham,Fontana Marina,Fontana,35.441613,-83.793786,2,0
-83.745926,35.009053,37,Clay,Chatuge Cove,Hayesville,35.009053,-83.745926,2,0
-83.694682,35.02269,38,Clay,Shooting Creek Market,Hayesville,35.02269,-83.694682,12,1
-83.671176,35.373503,39,Graham,Wolf Creek Grocery,Robbinsville,35.373503,-83.671176,4,2
-83.639006,35.196113,40,Macon,Lake End Marina,Topton,35.196113,-83.639006,2,0
-83.637376,35.197523,41,Macon,Nantahala Lakeside,Aquone,35.197523,-83.637376,2,1
-83.625216,35.402453,42,Graham,Prince Boat Dock,Almond,35.402453,-83.625216,1,0
-83.620126,35.405963,43,Graham,Crisp Boat Dock,Robbinsville,35.405963,-83.620126,1,0
-83.580376,35.328583,44,Swain,Nantahala Food Mart,Bryson City,35.328583,-83.580376,12,1
-83.562146,35.376593,45,Swain,Almond Boat Park,Bryson City,35.376593,-83.562146,2,0
-83.536556,35.374733,46,Swain,Parton Trading Post,Bryson City,35.374733,-83.536556,12,1
-83.531256,35.398953,47,Swain,Alarka Boat Dock,Bryson City,35.398953,-83.531256,1,0
-83.503806,35.372283,48,Swain,Kings Grocery,Bryson City,35.372283,-83.503806,5,1
-83.493986,35.384823,49,Swain,Great Smokey Mountain Bait & Tackle,Bryson City,35.384823,-83.493986,12,3
-83.475746,35.395613,50,Swain,Time Out Market #23,Bryson City,35.395613,-83.475746,24,1
-83.447836,35.425493,51,Swain,Mountain Energy #4,Bryson City,35.425493,-83.447836,0,0
-83.432806,35.432023,52,Swain,Hot Spot #1102,Bryson City,35.432023,-83.432806,12,1
-83.407926,35.256493,53,Macon,Cowee Convenience & Deli,Franklin,35.256493,-83.407926,12,1
-83.407856,35.167573,54,Macon,Carolina Mini Mart,Franklin,35.167573,-83.407856,12,2
-83.403976,35.171196,55,Macon,West End Pit Stop,Franklin,35.171196,-83.403976,12,1
-83.397506,35.133343,56,Macon,Fast Food Mart,Franklin,35.133343,-83.397506,18,2
-83.392536,35.453373,57,Swain,Cooper Creek General Store,Bryson City,35.453373,-83.392536,12,1
-83.392086,35.162733,58,Macon,Mountain Energy #101,Franklin,35.162733,-83.392086,36,4
-83.390246,35.198863,59,Macon,Village Trader General Store,Franklin,35.198863,-83.390246,12,1
-83.373136,35.184043,60,Macon,Hot Spot #2025,Franklin,35.184043,-83.373136,36,4
-83.369076,35.165593,61,Macon,Dowdle Mountain Road Pit Stop,Franklin,35.165593,-83.369076,24,2
-83.368006,35.182773,62,Macon,Aztex #201,Franklin,35.182773,-83.368006,25,1
-83.367406,35.191933,63,Macon,Express Mart USA,Franklin,35.191933,-83.367406,12,1
-83.364736,35.193273,64,Macon,N & N Express Mart,Franklin,35.193273,-83.364736,12,4
-83.360276,35.200603,65,Macon,Car City Gas & Oil Company,Franklin,35.200603,-83.360276,0,0
-83.357936,35.459373,66,Swain,Jenkins Grocery,Cherokee,35.459373,-83.357936,12,1
-83.329006,35.423993,67,Jackson,Cherokee Quality Plus,Whittier,35.423993,-83.329006,30,4
-83.321256,35.466693,68,Jackson,Big Bear Food Mart,Cherokee,35.466693,-83.321256,24,1
-83.315516,35.461513,69,Jackson,Mountain Energy #106,Cherokee,35.461513,-83.315516,24,2
-83.315306,35.487693,70,Jackson,Shell Convenience Chief,Cherokee,35.487693,-83.315306,18,0
-83.313046,35.495703,71,Swain,Cherokee Mini Mart,Cherokee,35.495703,-83.313046,18,4
-83.312526,35.457473,72,Jackson,Catamount Travel Center,Whittier,35.457473,-83.312526,36,4
-83.307116,35.498253,73,Swain,BJ's Coast Gift,Cherokee,35.498253,-83.307116,24,1
-83.302006,35.468443,74,Jackson,Mountain Energy #103,Cherokee,35.468443,-83.302006,30,2
-83.298376,35.141803,75,Macon,Cullasaja Express,Franklin,35.141803,-83.298376,18,4
-83.290026,35.384923,76,Jackson,Frontier Trading Post,Whittier,35.384923,-83.290026,24,3
-83.289786,35.384323,77,Jackson,Elders Superette #2,Whittier,35.384323,-83.289786,18,1
-83.288736,35.278643,78,Jackson,High Country Gas & Tire,Sylva,35.278643,-83.288736,5,1
-83.281136,35.520903,79,Swain,River Valley Store,Cherokee,35.520903,-83.281136,12,2
-83.255706,35.380043,80,Jackson,Holiday BP,Dillsboro,35.380043,-83.255706,18,2
-83.252916,35.335933,81,Jackson,Top Cat Grocery,Webster,35.335933,-83.252916,24,2
-83.241016,35.372003,82,Jackson,Mountain View Mart,Sylva,35.372003,-83.241016,4,0
-83.217506,35.374233,83,Jackson,How Convenient,Sylva,35.374233,-83.217506,12,2
-83.213116,35.376573,84,Jackson,Green's Auto Service,Sylva,35.376573,-83.213116,6,0
-83.212046,35.378253,85,Jackson,PJ's Fast Food Mart,Sylva,35.378253,-83.212046,12,2
-83.211136,35.377863,86,Jackson,Hi Express Exxon,Sylva,35.377863,-83.211136,12,4
-83.210306,35.372933,87,Jackson,Mountain Energy #102,Sylva,35.372933,-83.210306,36,6
-83.204966,35.313353,88,Jackson,Jackson County Airport,Cullowhee,35.313353,-83.204966,1,0
-83.204496,35.370993,89,Jackson,Hot Spot #1000,Sylva,35.370993,-83.204496,24,2
-83.203176,35.368743,90,Jackson,Enmark #835,Sylva,35.368743,-83.203176,24,0
-83.202736,35.055053,91,Macon,Highlands Express,Highlands,35.055053,-83.202736,12,2
-83.202506,35.054383,92,Macon,Farmer's Market Exxon,Highlands,35.054383,-83.202506,12,2
-83.200607,35.356603,93,Jackson,Sylva Quality Plus,Sylva,35.356603,-83.200607,30,4
-83.189476,35.306643,94,Jackson,Catamount Travel Center,Cullowhee,35.306643,-83.189476,24,2
-83.187836,35.392523,95,Jackson,Catamount Pump & Go,Sylva,35.392523,-83.187836,18,1
-83.145396,35.296633,96,Jackson,Caney Fork General Store,Cullowhee,35.296633,-83.145396,6,1
-83.141566,35.392923,97,Jackson,Mountain Country Store,Sylva,35.392923,-83.141566,12,1
-83.132706,35.185623,98,Jackson,Southern Meadows Convenience,Glenville,35.185623,-83.132706,12,3
-83.122606,35.270693,99,Jackson,Jimmy's Mini-Market,Tuckasegee,35.270693,-83.122606,12,2
-83.105446,35.519153,100,Haywood,Soco Grocery & Meats,Maggie Valley,35.519153,-83.105446,24,1
-83.099316,35.113723,101,Jackson,Cashier's Exxon,Cashiers,35.113723,-83.099316,24,4
-83.090426,35.117633,102,Jackson,Cashiers Convenience Store,Cashiers,35.117633,-83.090426,18,3
-83.030746,35.521923,103,Haywood,Teagues Superette,Maggie Valley,35.521923,-83.030746,30,2
-83.018806,35.523273,104,Haywood,Maggie Valley Quality Plus,Waynesville,35.523273,-83.018806,30,2
-83.015446,35.574953,105,Haywood,Sorrell's Merchandising,Waynesville,35.574953,-83.015446,18,2
-83.009406,35.463713,106,Haywood,EZ Stop Amoco,Waynesville,35.463713,-83.009406,18,1
-83.009266,35.464073,107,Haywood,Time Out Market #3,Waynesville,35.464073,-83.009266,36,6
-83.008326,35.481963,108,Haywood,Time Out Market #24,Waynesville,35.481963,-83.008326,12,2
-83.008266,35.595903,109,Haywood,Time Out Market #5,Waynesville,35.595903,-83.008266,10,2
-83.005836,35.467143,110,Haywood,Enmark #620,Waynesville,35.467143,-83.005836,27,2
-83.003616,35.469063,111,Haywood,SouthEast Energy #1405,Waynesville,35.469063,-83.003616,24,2
-82.998536,35.528323,112,Haywood,Roadrunner Market #184,Waynesville,35.528323,-82.998536,24,2
-82.991446,35.504163,113,Haywood,SouthEast Energy #1408,Waynesville,35.504163,-82.991446,18,0
-82.991026,35.495263,114,Haywood,Quick Pantry #104,Waynesville,35.495263,-82.991026,12,1
-82.988376,35.525873,115,Haywood,Junaluska Exxon,Waynesville,35.525873,-82.988376,24,4
-82.988186,35.488763,116,Haywood,Quick Pantry #100,Waynesville,35.488763,-82.988186,18,2
-82.982576,35.483593,117,Haywood,Pantry Pride Food Mart,Waynesville,35.483593,-82.982576,8,0
-82.979436,35.497133,118,Haywood,"Short Stop
Corner Stop",Waynesville,35.497133,-82.979436,12,0
-82.968216,35.512143,119,Haywood,Quick Pantry #101,Waynesville,35.512143,-82.968216,18,2
-82.957826,35.112533,120,Transylvania,Sapphire Country Store,Sapphire,35.112533,-82.957826,12,3
-82.956856,35.567433,121,Haywood,Sam's Mart #45,Waynesville,35.567433,-82.956856,18,5
-82.955886,35.572173,122,Haywood,Pilot Travel Center #0393,Waynesville,35.572173,-82.955886,24,6
-82.942916,35.675583,123,Haywood,Ferguson's Supply,Clyde,35.675583,-82.942916,12,1
-82.902016,35.785023,124,Madison,Meadowfork Community Store,Hot Springs,35.785023,-82.902016,2,1
-82.896556,35.470793,125,Haywood,Bethel Grocery,Waynesville,35.470793,-82.896556,18,2
-82.888866,35.471273,126,Haywood,Quick Pantry,Canton,35.471273,-82.888866,24,2
-82.877776,35.468973,127,Haywood,Single Stop #5,Canton,35.468973,-82.877776,18,5
-82.876756,35.135833,128,Transylvania,Lake Toxaway Trading Post,Lake Toxaway,35.135833,-82.876756,12,1
-82.870466,35.227103,129,Transylvania,McCall Grocery,Balsam Grove,35.227103,-82.870466,12,3
-82.869656,35.751813,130,Madison,Trust General Store,Hot Springs,35.751813,-82.869656,8,4
-82.864386,35.532263,131,Haywood,Single Stop II,Canton,35.532263,-82.864386,22,2
-82.851526,35.554933,132,Haywood,Daily Stop #201,Canton,35.554933,-82.851526,30,2
-82.851456,35.553903,133,Haywood,Smokey Mountain Truck & Auto,Canton,35.553903,-82.851456,24,4
-82.850736,35.553143,134,Haywood,South East Energy #1413,Canton,35.553143,-82.850736,24,4
-82.850436,35.551023,135,Haywood,Ingles #55,Canton,35.551023,-82.850436,36,4
-82.850436,35.551023,136,Haywood,Ingles Gas Express #55,Canton,35.551023,-82.850436,36,4
-82.840166,35.532903,137,Haywood,Quick Pantry #102,Canton,35.532903,-82.840166,10,0
-82.837866,35.522463,138,Haywood,Southside Discount,Canton,35.522463,-82.837866,18,2
-82.829686,35.891893,139,Madison,Ricker Triangle,Hot Springs,35.891893,-82.829686,3,0
-82.825096,35.545203,140,Haywood,Smokey Express #1,Canton,35.545203,-82.825096,12,0
-82.822746,35.534083,141,Haywood,Hot Spot #5004,Canton,35.534083,-82.822746,36,4
-82.822066,35.141283,142,Transylvania,Jarrett's Grocery,Rosman,35.141283,-82.822066,24,3
-82.807446,35.169653,143,Transylvania,Korner Mart,Brevard,35.169653,-82.807446,18,1
-82.781716,35.198953,144,Transylvania,Harmony Korner Inc.,Brevard,35.198953,-82.781716,18,6
-82.758486,35.701483,145,Buncombe,Reeves Grocery,Leicester,35.701483,-82.758486,2,0
-82.754416,35.543593,146,Buncombe,Candler Travel Center,Candler,35.543593,-82.754416,12,8
-82.753316,35.541193,147,Buncombe,Time Out Market#15,Candler,35.541193,-82.753316,24,3
-82.752846,35.543133,148,Buncombe,Samir's #15,Candler,35.543133,-82.752846,24,0
-82.742056,35.223753,149,Transylvania,Energy Mart #4,Brevard,35.223753,-82.742056,12,2
-82.738676,35.543063,150,Buncombe,BJ's Gas & Food Store,Candler,35.543063,-82.738676,18,2
-82.737916,35.226603,151,Transylvania,Triangle Stop #208,Brevard,35.226603,-82.737916,12,0
-82.736056,35.543753,152,Buncombe,The Spot,Candler,35.543753,-82.736056,12,2
-82.734876,35.680343,153,Buncombe,Paynes Country Store,Leicester,35.680343,-82.734876,2,0
-82.734626,35.232693,154,Transylvania,Eldridge Motors Inc.,Brevard,35.232693,-82.734626,8,0
-82.727956,35.658693,155,Buncombe,Fastrac Food Mart,Leicester,35.658693,-82.727956,12,1
-82.727166,35.508383,156,Buncombe,Pisgah Valley Market,Candler,35.508383,-82.727166,18,1
-82.725516,35.657663,157,Buncombe,Leicester General Store,Leicester,35.657663,-82.725516,12,2
-82.723966,35.243613,158,Perquimans,One Stop Store #1,Hertford,35.243613,-82.723966,12,0
-82.72301,35.244017,159,Transylvania,Brevard Point,Brevard,35.244017,-82.72301,12,1
-82.722446,35.248663,160,Transylvania,Enmark #100,Brevard,35.248663,-82.722446,36,2
-82.716056,35.838533,161,Madison,Brush Creek Gas & Grocery,Marshall,35.838533,-82.716056,8,4
-82.708196,35.832483,162,Madison,Walnut Creek Service Center,Marshall,35.832483,-82.708196,4,0
-82.703866,35.273323,163,Transylvania,Pisgah Express,Pisgah Forest,35.273323,-82.703866,12,0
-82.701006,35.272643,164,Transylvania,One Stop III,Pisgah Forest,35.272643,-82.701006,12,4
-82.700546,35.254003,165,Transylvania,One Stop Store #5,Pisgah Forest,35.254003,-82.700546,12,1
-82.684106,35.544793,166,Buncombe,Southeast Energy #1427,Candler,35.544793,-82.684106,30,2
-82.683286,35.148213,167,Transylvania,Cedar Mountain Quick Stop,Brevard,35.148213,-82.683286,4,0
-82.683086,35.544113,168,Buncombe,Boone's Convenience Corner #2,Candler,35.544113,-82.683086,24,4
-82.670576,35.810043,169,Madison,Marshall Quick Stop,Marshall,35.810043,-82.670576,30,2
-82.670246,35.811233,170,Madison,Ingles #28,Marshall,35.811233,-82.670246,36,4
-82.669336,35.808233,171,Madison,Highland Station,Marshall,35.808233,-82.669336,12,2
-82.656956,35.686583,172,Buncombe,H&S,Alexander,35.686583,-82.656956,12,2
-82.653696,35.791383,173,Madison,Stanley's #1,Marshall,35.791383,-82.653696,24,2
-82.652296,35.548303,174,Buncombe,Fastop #302,Asheville,35.548303,-82.652296,36,2
-82.649986,35.616733,175,Buncombe,Georgetown Gas House,Asheville,35.616733,-82.649986,30,2
-82.640936,35.273153,176,Transylvania,Triangle Stop #205,Penrose,35.273153,-82.640936,12,2
-82.636736,35.560783,177,Buncombe,Southeast Energy #1418,Asheville,35.560783,-82.636736,30,6
-82.636076,35.561033,178,Buncombe,Roadrunner Market #150,Asheville,35.561033,-82.636076,36,2
-82.635696,35.542713,179,Buncombe,Roadrunner Market #148,Asheville,35.542713,-82.635696,24,2
-82.632756,35.564843,180,Buncombe,J's Food Store,Asheville,35.564843,-82.632756,3,0
-82.632526,35.636103,181,Buncombe,Fastrac Food Mart #3,Asheville,35.636103,-82.632526,24,2
-82.630996,35.552263,182,Buncombe,Sand Hill Grocery,Asheville,35.552263,-82.630996,24,2
-82.628016,35.563983,183,Buncombe,Speedway #7913,Asheville,35.563983,-82.628016,30,4
-82.628016,35.563983,184,Buncombe,Sweeten Creek Quality Plus,Asheville,35.563983,-82.628016,30,4
-82.626996,35.609113,185,Buncombe,George's Mini Mart,Asheville,35.609113,-82.626996,18,2
-82.624336,35.603703,186,Buncombe,Citi Stop #111,Asheville,35.603703,-82.624336,24,2
-82.621256,35.345533,187,Henderson,Hyders Kountry Kubbard Inc.,Mills River,35.345533,-82.621256,18,1
-82.620706,35.748493,188,Buncombe,Red Oak Crossing,Weaverville,35.748493,-82.620706,13,3
-82.614726,35.574963,189,Buncombe,M & S Food Shop #3,Asheville,35.574963,-82.614726,18,1
-82.613906,35.626593,190,Buncombe,Fast Break II,Asheville,35.626593,-82.613906,12,2
-82.606986,35.592753,191,Buncombe,Enmark #315,Asheville,35.592753,-82.606986,24,0
-82.606456,35.582223,192,Buncombe,West Asheville Exxon,Asheville,35.582223,-82.606456,22,2
-82.606346,35.522173,193,Buncombe,Hot Spot #5003,Asheville,35.522173,-82.606346,24,4
-82.606326,35.529763,194,Buncombe,Eblen Short Stop #1,Asheville,35.529763,-82.606326,36,2
-82.606026,35.583553,195,Buncombe,Citi Stop #110,Asheville,35.583553,-82.606026,24,0
-82.605696,35.601523,196,Buncombe,Fast Break,Asheville,35.601523,-82.605696,12,0
-82.604816,35.592113,197,Buncombe,Hot Spot #5002,Asheville,35.592113,-82.604816,48,0
-82.600448,35.553229,198,Buncombe,Quick Trip #1,Asheville,35.553229,-82.600448,24,2
-82.595866,35.317123,199,Henderson,Etowah Exxon,Etowah,35.317123,-82.595866,12,3
-82.594156,35.578053,200,Buncombe,Citi Stop #107,Asheville,35.578053,-82.594156,24,1
-82.592806,35.318083,201,Henderson,Etowah Gas House,Etowah,35.318083,-82.592806,24,0
-82.591206,35.596283,202,Buncombe,Quick Trip #3,Asheville,35.596283,-82.591206,5,0
-82.588366,35.318753,203,Henderson,Mr. Pete's Market #6,Etowah,35.318753,-82.588366,24,1
-82.585046,35.587473,204,Buncombe,Fastrac Enterprises,Asheville,35.587473,-82.585046,24,2
-82.583366,35.578583,205,Buncombe,Haywood Quick Stop,Asheville,35.578583,-82.583366,18,3
-82.581406,35.592023,206,Buncombe,Sam's Club #6452,Asheville,35.592023,-82.581406,24,0
-82.581236,35.672633,207,Buncombe,Ingles #722,Weaverville,35.672633,-82.581236,24,2
-82.58049,35.67361,208,Buncombe,Stanley Citgo,Asheville,35.67361,-82.58049,24,3
-82.580016,35.578093,209,Buncombe,Gas Up,Asheville,35.578093,-82.580016,0,1
-82.579896,35.643633,210,Buncombe,Hot Spot #5001,Asheville,35.643633,-82.579896,18,0
-82.579156,35.640953,211,Buncombe,Allen's Gulf Service,Asheville,35.640953,-82.579156,12,2
-82.579116,35.577613,212,Buncombe,BJ's Food Mart,Asheville,35.577613,-82.579116,6,1
-82.578366,35.469273,213,Buncombe,Boone's Convenience Corner,Arden,35.469273,-82.578366,24,1
-82.577906,35.708593,214,Buncombe,Southeast Energy #1417,Weaverville,35.708593,-82.577906,36,8
-82.577236,35.676653,215,Buncombe,Citi Stop #117,Weaverville,35.676653,-82.577236,24,0
-82.573826,35.432393,216,Buncombe,Citi Stop #119,Arden,35.432393,-82.573826,24,1
-82.573126,35.567163,217,Buncombe,Eblen Short Stop #2,Asheville,35.567163,-82.573126,24,4
-82.570976,35.636753,218,Buncombe,Quick Stop II,Asheville,35.636753,-82.570976,12,0
-82.569636,35.826023,219,Madison,Red Dot,Mars Hill,35.826023,-82.569636,18,3
-82.569516,35.398813,220,Henderson,Mills River Gas House,Horse Shoe,35.398813,-82.569516,12,6
-82.569486,35.704663,221,Buncombe,Roadrunner Market #151,Weaverville,35.704663,-82.569486,36,5
-82.567116,35.387593,222,Henderson,Quick Mart #1,Horse Shoe,35.387593,-82.567116,24,2
-82.566996,35.702553,223,Buncombe,Ingles #180,Weaverville,35.702553,-82.566996,48,4
-82.566746,35.388653,224,Henderson,Triangle Stop #214,Horse Shoe,35.388653,-82.566746,22,2
-82.564296,35.684963,225,Buncombe,Citi Stop #121,Weaverville,35.684963,-82.564296,6,0
-82.563096,35.579193,226,Buncombe,Green's Mini Mart,Asheville,35.579193,-82.563096,12,2
-82.561116,35.711313,227,Buncombe,Handy Mart #3,Weaverville,35.711313,-82.561116,5,0
-82.560146,35.711823,228,Buncombe,Corner Store,Weaverville,35.711823,-82.560146,12,2
-82.556706,35.591383,229,Buncombe,Hot Spot #1004,Asheville,35.591383,-82.556706,6,0
-82.554656,35.613123,230,Buncombe,Citi Stop #108,Asheville,35.613123,-82.554656,24,0
-82.554296,35.600473,231,Buncombe,Roadrunner Market #160,Asheville,35.600473,-82.554296,30,2
-82.55332,35.48253,232,Buncombe,Energy Mart #10,Arden,35.48253,-82.55332,24,8
-82.552936,35.606203,233,Buncombe,Enmark #325,Asheville,35.606203,-82.552936,18,0
-82.552906,35.629503,234,Buncombe,Citi Stop #109,Asheville,35.629503,-82.552906,18,0
-82.552876,35.908773,235,Madison,Wolf Creek Market,Mars Hill,35.908773,-82.552876,24,3
-82.551416,35.587683,236,Buncombe,Eblen Short Stop #7,Asheville,35.587683,-82.551416,24,2
-82.549506,35.342723,237,Henderson,Quick Mart #2,Horse Shoe,35.342723,-82.549506,12,1
-82.548886,35.479913,238,Buncombe,Ingles #130,Arden,35.479913,-82.548886,24,0
-82.548286,35.830243,239,Madison,Briggs Service Station,Mars Hill,35.830243,-82.548286,4,1
-82.546484,35.606928,240,Buncombe,"One Stop #1
Express Lane",Asheville,35.606928,-82.546484,12,2
-82.546446,35.601073,241,Buncombe,Citi Stop #112,Asheville,35.601073,-82.546446,24,0
-82.545116,35.569823,242,Buncombe,Citi Stop #113,Asheville,35.569823,-82.545116,24,0
-82.544546,35.824443,243,Madison,Ingles #80,Mars Hill,35.824443,-82.544546,36,4
-82.544346,35.822793,244,Madison,Country Hub Inc,Mars Hill,35.822793,-82.544346,27,2
-82.543466,35.565693,245,Buncombe,Market Center Express #8,Asheville,35.565693,-82.543466,18,1
-82.541296,35.784513,246,Buncombe,M & J Food Store,Weaverville,35.784513,-82.541296,24,3
-82.540606,35.561813,247,Buncombe,Stop-N-Go #1,Asheville,35.561813,-82.540606,30,4
-82.538336,35.818593,248,Madison,Mars Hill Exxon,Mars Hill,35.818593,-82.538336,36,3
-82.537836,35.783233,249,Buncombe,Market Center Express,Weaverville,35.783233,-82.537836,24,2
-82.536196,35.437983,250,Henderson,Mr. Pete's Market #2,Fletcher,35.437983,-82.536196,24,1
-82.535176,35.549243,251,Buncombe,Speedway #261,Asheville,35.549243,-82.535176,24,2
-82.534396,35.596223,252,Buncombe,Ingles #7,Asheville,35.596223,-82.534396,36,4
-82.533616,35.444403,253,Buncombe,Southeast Energy #1412,Arden,35.444403,-82.533616,24,0
-82.532626,35.690583,254,Buncombe,Stanley's Station #3,Weaverville,35.690583,-82.532626,18,1
-82.530026,35.589023,255,Buncombe,Citi Stop #116,Asheville,35.589023,-82.530026,18,0
-82.52749,35.45079,256,Buncombe,Fastop #306,Arden,35.45079,-82.52749,48,4
-82.526846,35.514653,257,Buncombe,Market Center #4,Asheville,35.514653,-82.526846,48,4
-82.525846,35.484413,258,Buncombe,Skyland Exxon,Skyland,35.484413,-82.525846,24,2
-82.522856,35.473383,259,Buncombe,Southeast Energy #1614,Arden,35.473383,-82.522856,36,6
-82.522246,35.545393,260,Buncombe,Hot Spot #2003,Asheville,35.545393,-82.522246,8,0
-82.522036,35.499803,261,Buncombe,Ingles Gas Express #730,Skyland,35.499803,-82.522036,36,4
-82.52173,35.7679,262,Buncombe,Stockton Farms Valero,Barnardsville,35.7679,-82.52173,12,2
-82.519916,35.535593,263,Buncombe,Citi Stop #105,Asheville,35.535593,-82.519916,24,1
-82.518276,35.499243,264,Buncombe,Market Center #3,Asheville,35.499243,-82.518276,48,4
-82.517496,35.497813,265,Buncombe,Stop-N-Go #2,Arden,35.497813,-82.517496,12,1
-82.515996,35.474793,266,Buncombe,Market Center Express #5,Arden,35.474793,-82.515996,12,0
-82.514046,35.586413,267,Buncombe,Quick Trip #2,Asheville,35.586413,-82.514046,12,2
-82.513556,35.409813,268,Henderson,Fletcher Exxon,Fletcher,35.409813,-82.513556,18,2
-82.513003,35.40691,269,Henderson,Mr. Pete's Market,Fletcher,35.40691,-82.513003,24,4
-82.511246,35.460913,270,Buncombe,Stop-N-Go #3,Arden,35.460913,-82.511246,30,2
-82.510306,35.566043,271,Buncombe,Elben Short Stop #3,Asheville,35.566043,-82.510306,24,2
-82.509516,35.451913,272,Buncombe,Enmark #815,Arden,35.451913,-82.509516,36,4
-82.507206,35.446483,273,Buncombe,Kounty Line Fletcher,Arden,35.446483,-82.507206,24,4
-82.507096,35.397913,274,Henderson,United Energy,Naples,35.397913,-82.507096,12,0
-82.506826,35.396393,275,Henderson,Discount Convenience #5,Naples,35.396393,-82.506826,24,2
-82.506586,35.442373,276,Henderson,Ingles #43,Fletcher,35.442373,-82.506586,36,0
-82.505546,35.586253,277,Buncombe,Enmark #844,Asheville,35.586253,-82.505546,36,0
-82.505236,35.394733,278,Henderson,South East Energy #1426,Naples,35.394733,-82.505236,36,8
-82.503296,35.586843,279,Buncombe,One Stop Store #19,Asheville,35.586843,-82.503296,12,2
-82.502796,35.574333,280,Buncombe,River's Edge Shell,Asheville,35.574333,-82.502796,24,2
-82.501686,35.574963,281,Buncombe,M & J Discount Tobacco #3,Asheville,35.574963,-82.501686,18,2
-82.493936,35.485753,282,Buncombe,Stop N Go #6,Arden,35.485753,-82.493936,12,0
-82.492626,35.320443,283,Henderson,Energy Mart #3,Hendersonville,35.320443,-82.492626,12,2
-82.487346,35.784433,284,Buncombe,D & D Grocery,Weaverville,35.784433,-82.487346,12,1
-82.485726,35.335993,285,Henderson,One Stop Store #8,Hendersonville,35.335993,-82.485726,12,1
-82.484796,35.783473,286,Buncombe,One Stop Store #14,Barnardsville,35.783473,-82.484796,6,2
-82.483926,35.555723,287,Buncombe,Quick Mart #2,Asheville,35.555723,-82.483926,18,1
-82.482966,35.595813,288,Buncombe,Quick Trip #4,Asheville,35.595813,-82.482966,12,0
-82.481276,35.361993,289,Henderson,Enmark #251,Hendersonville,35.361993,-82.481276,24,0
-82.479796,35.314843,290,Henderson,Fifth Avenue Shell,Hendersonville,35.314843,-82.479796,12,1
-82.478916,35.286683,291,Henderson,Bonaire Convenience Store #2,Hendersonville,35.286683,-82.478916,12,1
-82.478336,35.552713,292,Buncombe,Kounty Line Reynolds,Asheville,35.552713,-82.478336,24,4
-82.475236,35.340733,293,Henderson,Energy Stop,Hendersonville,35.340733,-82.475236,36,1
-82.474066,35.379033,294,Henderson,The Corner Pantry,Hendersonville,35.379033,-82.474066,7,1
-82.473496,35.346213,295,Henderson,Triangle Stop #216,Hendersonville,35.346213,-82.473496,48,8
-82.47027,35.55047,296,Buncombe,Bat Cave Quality Plus,Asheville,35.55047,-82.47027,30,4
-82.469416,35.583673,297,Buncombe,One Stop Store #11,Asheville,35.583673,-82.469416,24,1
-82.469046,35.329793,298,Henderson,Mr. Pete's Market #9,Hendersonville,35.329793,-82.469046,18,2
-82.466196,35.439463,299,Henderson,Charlie's On The Creek,Fletcher,35.439463,-82.466196,12,2
-82.464846,35.583373,300,Buncombe,Roadrunner Market #152,Asheville,35.583373,-82.464846,18,2
-82.463016,35.584433,301,Buncombe,Eblen Short Stop #8,Asheville,35.584433,-82.463016,24,3
-82.462906,35.309593,302,Henderson,Mr. Pete's Market #8,Hendersonville,35.309593,-82.462906,18,1
-82.462386,35.305993,303,Henderson,Norm's Mini Mart #4,Hendersonville,35.305993,-82.462386,12,2
-82.461216,35.311373,304,Henderson,Kavya Express Lane,Hendersonville,35.311373,-82.461216,18,2
-82.460706,35.319943,305,Henderson,Triangle Stop #200,Hendersonville,35.319943,-82.460706,30,2
-82.458466,35.305103,306,Henderson,Executive Service 66,Hendersonville,35.305103,-82.458466,5,1
-82.455156,35.323393,307,Henderson,Henderson Oil Company,Hendersonville,35.323393,-82.455156,0,0
-82.453466,35.306263,308,Henderson,Speedway #7916,Hendersonville,35.306263,-82.453466,24,0
-82.452156,35.306703,309,Henderson,Norm's Mini Mart #6,Hendersonville,35.306703,-82.452156,24,2
-82.450816,35.305893,310,Rutherford,74 Junction,Forest City,35.305893,-82.450816,24,2
-82.450816,35.305893,311,Henderson,Enmark #250,Hendersonville,35.305893,-82.450816,30,2
-82.447136,35.329543,312,Henderson,Norm's Mini Mart #8,Hendersonville,35.329543,-82.447136,24,2
-82.444386,35.337353,313,Henderson,Energy Mart #1,Hendersonville,35.337353,-82.444386,24,4
-82.443006,35.304253,314,Henderson,Spartanburg Highway Phillips 66,Hendersonville,35.304253,-82.443006,13,2
-82.442756,35.216083,315,Henderson,Rosco's,Tuxedo,35.216083,-82.442756,25,6
-82.438946,35.482543,316,Buncombe,Cane Creek Station,Fletcher,35.482543,-82.438946,24,1
-82.437016,35.298113,317,Henderson,Fast Lane Express #2,Hendersonville,35.298113,-82.437016,24,0
-82.436306,35.593483,318,Buncombe,Stop-N-Go #9,Swannanoa,35.593483,-82.436306,24,2
-82.435926,35.343483,319,Henderson,Stop & Go #2,Hendersonville,35.343483,-82.435926,36,4
-82.435296,35.343643,320,Henderson,Interstate Hardware & Grocery,Hendersonville,35.343643,-82.435296,13,2
-82.434316,35.346503,321,Henderson,Sam's Club #4950,Hendersonville,35.346503,-82.434316,16,2
-82.433506,35.295093,322,Henderson,Cason Oil Co.,Hendersonville,35.295093,-82.433506,2,1
-82.432766,35.346823,323,Henderson,Triangle Stop #209,Hendersonville,35.346823,-82.432766,36,4
-82.42954,35.34768,324,Henderson,"Ingles #179
3643 Howard Gaped",Hendersonville,35.34768,-82.42954,36,4
-82.429046,35.290333,325,Henderson,Ingles #177,Flat Rock,35.290333,-82.429046,48,2
-82.427676,35.353113,326,Henderson,Mr. Pete's Market #5,Hendersonville,35.353113,-82.427676,24,1
-82.425716,35.295073,327,Henderson,King Grocery & Hardware,Flat Rock,35.295073,-82.425716,4,1
-82.425506,35.594563,328,Buncombe,6-Pac Smoke Stack,Swannanoa,35.594563,-82.425506,24,2
-82.425176,35.913193,329,Yancey,Riverside Grocery,Burnsville,35.913193,-82.425176,12,1
-82.424966,35.525213,330,Buncombe,Fairview Station,Fairview,35.525213,-82.424966,48,5
-82.422516,35.357133,331,Henderson,Apple Valley Gas House,Hendersonville,35.357133,-82.422516,18,0
-82.415646,35.523083,332,Buncombe,KD's One Stop,Fairview,35.523083,-82.415646,36,6
-82.409226,35.296673,333,Henderson,Energy Mart #8,Flat Rock,35.296673,-82.409226,36,2
-82.408866,35.297463,334,Henderson,Mountain Energy #25,Flat Rock,35.297463,-82.408866,48,0
-82.408006,35.523163,335,Buncombe,Red Star Convenience Store,Fairview,35.523163,-82.408006,18,1
-82.406706,35.598883,336,Buncombe,Ingles #34,Swannanoa,35.598883,-82.406706,36,0
-82.40661,35.59889,337,Buncombe,Citigo Quick Mart,Swannanoa,35.59889,-82.40661,24,0
-82.404986,35.297133,338,Henderson,Triangle Stop #215,Flat Rock,35.297133,-82.404986,48,8
-82.403916,35.599573,339,Buncombe,Swannanoa Community Store,Swannanoa,35.599573,-82.403916,30,5
-82.396396,35.514383,340,Buncombe,Fairview Grocery,Fairview,35.514383,-82.396396,6,1
-82.391786,35.604583,341,Buncombe,F & J #4,Swannanoa,35.604583,-82.391786,12,1
-82.379936,35.911373,342,Yancey,Prices Creek Store,Burnsville,35.911373,-82.379936,5,1
-82.376856,35.329293,343,Henderson,Dana Food Center,Dana,35.329293,-82.376856,10,2
-82.358936,35.383053,344,Henderson,"Edneyville General Store, Inc.",Hendersonville,35.383053,-82.358936,18,3
-82.353106,35.387823,345,Henderson,Griffin's Grocery,Edneyville,35.387823,-82.353106,12,2
-82.348246,35.608373,346,Buncombe,Black Mountain Quick Stop,Black Mountain,35.608373,-82.348246,24,2
-82.343556,35.609313,347,Buncombe,Hillbilly's BP,Black Mountain,35.609313,-82.343556,12,2
-82.340776,35.610083,348,Buncombe,Blue Ridge Mini Mart,Black Mountain,35.610083,-82.340776,12,1
-82.329896,35.245893,349,Polk,Saluda Truck Plaza,Saluda,35.245893,-82.329896,12,6
-82.329116,35.246823,350,Polk,Triangle Stop #202,Saluda,35.246823,-82.329116,24,4
-82.320106,35.607513,351,Buncombe,Ingles #708,Black Mountain,35.607513,-82.320106,36,4
-82.319326,35.614403,352,Buncombe,Roadrunner Market #135,Black Mountain,35.614403,-82.319326,24,0
-82.319176,35.609373,353,Buncombe,Energy Mart #11,Black Mountain,35.609373,-82.319176,24,1
-82.318626,36.026033,354,Mitchell,Peterson Store,Green Mountain,36.026033,-82.318626,2,1
-82.317416,35.619753,355,Buncombe,Robo Car Wash & Chevron,Black Mountain,35.619753,-82.317416,4,1
-82.316996,35.912843,356,Yancey,Andy's Inc,Burnsville,35.912843,-82.316996,26,3
-82.312566,35.620243,357,Buncombe,Burtons Place,Black Mountain,35.620243,-82.312566,12,2
-82.288476,35.914653,358,Yancey,Dellinger Texaco,Burnsville,35.914653,-82.288476,24,0
-82.286046,35.916263,359,Yancey,Burnsville County store,Burnsville,35.916263,-82.286046,6,0
-82.282956,35.915533,360,Yancey,Mountain Energy #22,Burnsville,35.915533,-82.282956,44,4
-82.282746,35.916253,361,Yancey,Burnsville Citgo,Burnsville,35.916253,-82.282746,24,2
-82.269166,36.034593,362,Mitchell,Griffith's General Store,Green Mountain,36.034593,-82.269166,1,0
-82.265976,35.915483,363,Yancey,Burnsville Gas House,Burnsville,35.915483,-82.265976,20,2
-82.241666,35.214823,364,Polk,Tryon Food & Fuel,Tryon,35.214823,-82.241666,12,1
-82.230116,35.434483,365,Rutherford,Lake Lure Tours,Lake Lure,35.434483,-82.230116,1,0
-82.228066,36.022793,366,Mitchell,Red Hill Grocery,Bakersville,36.022793,-82.228066,12,1
-82.226996,35.430673,367,Rutherford,Lake-View Landing,Lake Lure,35.430673,-82.226996,5,1
-82.221026,35.909903,368,Yancey,Pine Hill Automotive,Burnville,35.909903,-82.221026,0,2
-82.209556,36.070973,369,Mitchell,Hopson's Grocery,Bakersville,36.070973,-82.209556,3,2
-82.206906,35.244933,370,Polk,Express Stop,Columbus,35.244933,-82.206906,24,2
-82.204746,35.247503,371,Polk,Quick Pantry #5,Columbus,35.247503,-82.204746,48,1
-82.204176,35.246913,372,Polk,Roadrunner Market #157,Columbus,35.246913,-82.204176,24,2
-82.199796,35.807363,373,Yancey,B & B General Merchandise,Burnsville,35.807363,-82.199796,3,1
-82.198866,35.860313,374,Yancey,Poplar Grove Country Store,Burnsville,35.860313,-82.198866,3,1
-82.197236,35.410903,375,Rutherford,Ingles #127,Lake Lure,35.410903,-82.197236,36,2
-82.190626,35.844653,376,Yancey,Westall Grocery,Burnsville,35.844653,-82.190626,2,0
-82.186736,35.572853,377,McDowell,Crooked Creek General Store,Old Fort,35.572853,-82.186736,3,1
-82.184266,35.769713,378,Yancey,Effler's Grocery,Burnsville,35.769713,-82.184266,2,0
-82.182406,35.263753,379,Polk,Roadrunner Market #158,Columbus,35.263753,-82.182406,12,2
-82.181366,35.623883,380,McDowell,Old Fort One Stop,Old Fort,35.623883,-82.181366,24,2
-82.180156,35.621143,381,McDowell,Samir Quick Stop #14,Old Fort,35.621143,-82.180156,18,1
-82.179846,35.359413,382,Polk,McGuinn's Store,Mill Spring,35.359413,-82.179846,12,3
-82.178326,35.619823,383,McDowell,Old Fort Stop,Old Fort,35.619823,-82.178326,3,1
-82.175946,35.631513,384,McDowell,Samir Quick Stop #1,Old Fort,35.631513,-82.175946,5,0
-82.163426,35.298353,385,Polk,Deb's Mini Mart #1,Mill Spring,35.298353,-82.163426,12,2
-82.161346,35.297793,386,Polk,Deb's Mini Mart #4,Mill Spring,35.297793,-82.161346,12,2
-82.157276,36.014563,387,Mitchell,Young's Fuel Service,Bakersville,36.014563,-82.157276,12,1
-82.155906,36.013513,388,Mitchell,Bakersville Quick Mart,Bakersville,36.013513,-82.155906,12,1
-82.143426,35.637783,389,McDowell,Stuckeys-DQ Old Fort,Old Fort,35.637783,-82.143426,24,2
-82.143136,35.978193,390,Mitchell,Samir Quick Stop #10,Bakersville,35.978193,-82.143136,4,0
-82.116476,36.062923,391,Mitchell,Thomas Grocery,Bakersville,36.062923,-82.116476,2,1
-82.115836,35.668433,392,McDowell,Shuford Convenience Store,Marion,35.668433,-82.115836,7,1
-82.114606,35.964523,393,Mitchell,P & R Grocery,Bakersville,35.964523,-82.114606,12,2
-82.092606,35.527143,394,Rutherford,Cove Corner Store,Union Mills,35.527143,-82.092606,3,1
-82.087686,35.243423,395,Polk,Deb's Mini Mart #2,Columbus,35.243423,-82.087686,18,2
-82.077246,35.688693,396,McDowell,Pleasant Garden General Store,Marion,35.688693,-82.077246,4,1
-82.074466,35.915373,397,Mitchell,Ingles #33,Spruce Pine,35.915373,-82.074466,24,0
-82.068056,35.896463,398,Mitchell,Grassy Creek Valero,Spruce Pine,35.896463,-82.068056,18,2
-82.066966,35.891423,399,Mitchell,Grassy Creek Excel,Spruce Pine,35.891423,-82.066966,10,2
-82.052366,35.635943,400,McDowell,Samirs #16,Marion,35.635943,-82.052366,3,0
-82.052096,35.921833,401,Mitchell,19E Valero,Spruce Pine,35.921833,-82.052096,18,0
-82.050166,35.637023,402,McDowell,Sugar Hill Food Mart,Marion,35.637023,-82.050166,12,0
-82.049736,35.695013,403,McDowell,Riverside Convenience,Marion,35.695013,-82.049736,12,2
-82.049256,35.738453,404,McDowell,KG's #103,Marion,35.738453,-82.049256,5,1
-82.048026,35.922803,405,Mitchell,Stamey's Grocery,Spruce Pine,35.922803,-82.048026,12,4
-82.044786,35.410823,406,Rutherford,Greenhill General Store,Rutherfordton,35.410823,-82.044786,12,1
-82.043726,35.869233,407,Mitchell,Murphy USA #6597,Spruce Pine,35.869233,-82.043726,24,0
-82.040496,35.786213,408,McDowell,Samir Quick Stop #6,Marion,35.786213,-82.040496,5,1
-82.040376,35.642653,409,McDowell,Pilot Travel Center #1063,Marion,35.642653,-82.040376,30,9
-82.033986,35.796653,410,McDowell,Woodlawn Gas House,Marion,35.796653,-82.033986,18,2
-82.033093,35.648777,411,McDowell,Murphy Express #8682,Marion,35.648777,-82.033093,36,4
-82.032976,35.648733,412,McDowell,Samir Quick Stop #22,Marion,35.648733,-82.032976,18,2
-82.030626,35.703023,413,McDowell,Samir's Quick Stop#19,Marion,35.703023,-82.030626,36,2
-82.027346,35.701443,414,McDowell,M & M Supermarket #4,Marion,35.701443,-82.027346,12,0
-82.024966,35.658173,415,McDowell,Country Market,Marion,35.658173,-82.024966,4,0
-82.023826,36.022443,416,Avery,Spear Country Store,Newland,36.022443,-82.023826,12,1
-82.011366,35.678033,417,McDowell,Kay Express,Marion,35.678033,-82.011366,12,1
-82.011366,35.678033,418,McDowell,Kay Express #2,Marion,35.678033,-82.011366,18,0
-82.010746,35.936463,419,Avery,County Line Market,Spruce Pine,35.936463,-82.010746,12,0
-82.009246,35.684793,420,McDowell,Main Street Exxon,Marion,35.684793,-82.009246,4,1
-81.999956,35.688613,421,McDowell,Big Daddy's Minit Mart #4,Marion,35.688613,-81.999956,12,1
-81.994676,36.167083,422,Avery,J's Market,Elk Park,36.167083,-81.994676,1,1
-81.993576,35.691813,423,McDowell,Kwik Mart,Marion,35.691813,-81.993576,18,0
-81.992786,35.730463,424,McDowell,Burnette Landing,Marion,35.730463,-81.992786,1,0
-81.992566,35.674553,425,McDowell,KG's Quik Stop #104,Marion,35.674553,-81.992566,7,2
-81.992566,35.674553,426,McDowell,Samirs #4,Marion,35.674553,-81.992566,12,0
-81.985796,35.615123,427,McDowell,West Court Food Center #2,Marion,35.615123,-81.985796,3,1
-81.985516,35.640503,428,McDowell,Samir Quick Stop #3,Marion,35.640503,-81.985516,24,2
-81.985276,35.732323,429,McDowell,Lake James Landing,Marion,35.732323,-81.985276,1,0
-81.981496,35.444603,430,Rutherford,Gilkey General Store,Rutherfordton,35.444603,-81.981496,5,1
-81.979066,35.664763,431,McDowell,Marion Gas House,Marion,35.664763,-81.979066,15,0
-81.979066,35.664763,432,McDowell,Marion Gas House,Marion,35.664763,-81.979066,0,0
-81.973176,35.661773,433,McDowell,Express Food Mart #2,Marion,35.661773,-81.973176,5,1
-81.969996,35.408713,434,Rutherford,Michael's Market #1,Rutherfordton,35.408713,-81.969996,4,1
-81.967356,35.852443,435,McDowell,West Court Food Center #3,Marion,35.852443,-81.967356,12,1
-81.964126,36.152453,436,Avery,Scotty's Appalachian Produce,Elk Park,36.152453,-81.964126,5,2
-81.963866,35.658713,437,McDowell,Shop & Save #10,Marion,35.658713,-81.963866,48,0
-81.963126,35.658223,438,McDowell,Love's Travel Stop #308,Marion,35.658223,-81.963126,36,10
-81.962706,35.382193,439,Rutherford,Corner Store #24,Rutherfordton,35.382193,-81.962706,12,2
-81.962206,35.749153,440,McDowell,Bear Creek Marina,Nebo,35.749153,-81.962206,4,0
-81.961096,35.354823,441,Rutherford,Circle A Food Store,Rutherfordton,35.354823,-81.961096,12,1
-81.958036,35.365483,442,Rutherford,Scotchman #3702,Rutherfordton,35.365483,-81.958036,36,0
-81.957666,35.384003,443,Rutherford,Bon Bon Quick Mart,Rutherfordton,35.384003,-81.957666,12,0
-81.957656,35.364623,444,Rutherford,Sai Mart,Rutherfordton,35.364623,-81.957656,10,0
-81.955776,35.978073,445,Avery,Three Mile Quick Mart,Newland,35.978073,-81.955776,22,2
-81.955346,35.383283,446,Rutherford,East Mountain Kwik Mart,Rutherfordton,35.383283,-81.955346,6,2
-81.947546,35.384323,447,Rutherford,Little Cubbard,Rutherfordton,35.384323,-81.947546,12,2
-81.944866,35.376543,448,Rutherford,Phillips 66 Express Store,Rutherfordton,35.376543,-81.944866,12,0
-81.943136,36.172743,449,Avery,The Old Country Store At Headwaters,Elk Park,36.172743,-81.943136,8,1
-81.941296,35.363343,450,Rutherford,Scotchman #3718,Rutherfordton,35.363343,-81.941296,36,0
-81.939586,35.299133,451,Rutherford,Drop-In Food Store #6,Forest City,35.299133,-81.939586,18,2
-81.932796,36.114993,452,Avery,Kwik Jax,Newland,36.114993,-81.932796,10,2
-81.928196,36.090063,453,Avery,Newland Quality Mart,Newland,36.090063,-81.928196,12,1
-81.928066,36.084873,454,Avery,Newland Valero #63,Newland,36.084873,-81.928066,12,2
-81.928026,36.080643,455,Avery,"Quik Shop, Inc.",Newland,36.080643,-81.928026,18,2
-81.925276,35.355743,456,Rutherford,Deb's Mini Mart #5,Spindale,35.355743,-81.925276,24,4
-81.924786,35.711833,457,McDowell,Samir Quick Stop #9,Nebo,35.711833,-81.924786,4,0
-81.921076,35.335433,458,Rutherford,Oakland Kwik Stop,Spindale,35.335433,-81.921076,5,0
-81.921006,35.335983,459,Rutherford,Deb's Mini Mart #6,Spindale,35.335983,-81.921006,6,1
-81.919056,35.353523,460,Rutherford,Frank's Corner,Spindale,35.353523,-81.919056,12,2
-81.914276,36.031383,461,Avery,Crossnore Exxon,Crossnore,36.031383,-81.914276,8,0
-81.912406,35.686423,462,McDowell,Nebo Quick Stop,Nebo,35.686423,-81.912406,17,5
-81.912396,35.684153,463,McDowell,Samir #5,Nebo,35.684153,-81.912396,24,3
-81.912316,35.414743,464,Rutherford,Mount Vernon Cubbard,Forest City,35.414743,-81.912316,4,1
-81.897136,35.335183,465,Rutherford,Murphy USA #6815,Forest City,35.335183,-81.897136,24,2
-81.893286,35.975293,466,Burke,Mountain Crossing Mercantile,Jonas Ridge,35.975293,-81.893286,3,1
-81.892016,36.028283,467,Avery,Lowery's BBQ Company,Pineola,36.028283,-81.892016,12,3
-81.886356,35.632813,468,McDowell,West Court Food Center #4,Nebo,35.632813,-81.886356,5,0
-81.886326,35.262583,469,Rutherford,Ray's Mini Mart,Forest City,35.262583,-81.886326,5,1
-81.885756,35.743293,470,Burke,Lake James Marina,Nebo,35.743293,-81.885756,4,0
-81.884136,35.344913,471,Rutherford,Drop-In Food Store #1,Forest City,35.344913,-81.884136,12,0
-81.881716,35.321923,472,Rutherford,Ingles #27,Forest City,35.321923,-81.881716,36,0
-81.881536,35.333603,473,Rutherford,Drop-In Food Store #3,Forest City,35.333603,-81.881536,12,0
-81.876936,35.339433,474,Rutherford,Speedway #7917,Forest City,35.339433,-81.876936,24,2
-81.872746,36.071323,475,Avery,Price Point Convenience Store,Linville,36.071323,-81.872746,18,2
-81.872066,36.162923,476,Avery,Banner Elk Exxon,Banner Elk,36.162923,-81.872066,19,0
-81.870496,36.160993,477,Avery,Circle K #250,Banner Elk,36.160993,-81.870496,12,0
-81.866896,35.490253,478,Rutherford,"Cane Creek Grocery, Inc",Union Mills,35.490253,-81.866896,3,1
-81.861736,35.332723,479,Rutherford,Drop-In Food Store #2,Forest City,35.332723,-81.861736,6,0
-81.859646,35.321693,480,Rutherford,OHM Food Mart,Forest City,35.321693,-81.859646,6,1
-81.859126,36.144453,481,Avery,Scotchman #104,Banner Elk,36.144453,-81.859126,12,3
-81.857666,35.304783,482,Rutherford,Alexander Gas House,Forest City,35.304783,-81.857666,24,0
-81.857546,35.313113,483,Rutherford,Quick Pantry #1,Forest City,35.313113,-81.857546,24,1
-81.856846,35.312753,484,Rutherford,Broadway BP #1,Forest City,35.312753,-81.856846,24,1
-81.848526,36.295673,485,Watauga,Stone Mountain General Store,Sugar Grove,36.295673,-81.848526,4,1
-81.846246,35.292973,486,Rutherford,OHM Food Mart,Forest City,35.292973,-81.846246,6,0
-81.845966,35.246633,487,Rutherford,Chase Community Store,Forest City,35.246633,-81.845966,4,0
-81.844226,35.679273,488,Burke,Country Market,Morganton,35.679273,-81.844226,3,1
-81.843856,35.288883,489,Rutherford,Drop-In Food Store #7,Forest City,35.288883,-81.843856,4,2
-81.839636,36.118453,490,Avery,Scotchman #100,Banner Elk,36.118453,-81.839636,24,1
-81.837846,36.117843,491,Avery,Zuha Mart,Banner Elk,36.117843,-81.837846,24,0
-81.836686,35.333513,492,Rutherford,Corner Store,Bostic,35.333513,-81.836686,12,1
-81.830426,35.748643,493,Burke,Mimosa Fishing Club Dock,Morganton,35.748643,-81.830426,2,0
-81.830166,35.370373,494,Rutherford,Drop In Family Market,Bostic,35.370373,-81.830166,12,1
-81.817876,35.335953,495,Rutherford,East Kwik Stop #3,Bostic,35.335953,-81.817876,12,1
-81.812976,35.772233,496,Burke,Shop & Save,Morganton,35.772233,-81.812976,6,1
-81.796636,36.146393,497,Watauga,Speedway #7925,Foscoe,36.146393,-81.796636,18,6
-81.792856,35.267863,498,Rutherford,Key Largo #2,Henrietta,35.267863,-81.792856,5,0
-81.788056,36.252983,499,Watauga,Cove Creek Store,Sugar Grove,36.252983,-81.788056,8,1
-81.784076,35.725423,500,Burke,Thrifty Mart,Glen Alpine,35.725423,-81.784076,4,1
-81.774446,35.302903,501,Rutherford,Frank's Station,Ellenboro,35.302903,-81.774446,12,2
-81.771676,35.667623,502,Burke,Hillbilly Grocery,Morganton,35.667623,-81.771676,6,1
-81.770796,36.157843,503,Watauga,Foscoe Country Corner & Deli,Foscoe,36.157843,-81.770796,4,1
-81.762996,35.727323,504,Burke,Big Daddys Quik Mart,Glen Alpine,35.727323,-81.762996,5,0
-81.761126,35.332263,505,Rutherford,Kwik Stop # 2,Ellenboro,35.332263,-81.761126,18,6
-81.760846,35.652833,506,Burke,Brendletown Grocery,Morganton,35.652833,-81.760846,12,2
-81.755876,35.778233,507,Burke,Oak Hill Grocery,Morganton,35.778233,-81.755876,3,1
-81.755096,35.777093,508,Burke,Bull Dog Convenience,Morganton,35.777093,-81.755096,8,2
-81.751896,36.238453,509,Watauga,B & B Mini Mart,Vilas,36.238453,-81.751896,18,2
-81.749736,35.720203,510,Burke,Colonel's Pantry #3,Morganton,35.720203,-81.749736,48,0
-81.747486,36.284753,511,Watauga,Valley Grocery,Zionville,36.284753,-81.747486,5,2
-81.747146,35.280073,512,Rutherford,Earl's Short Stop,Mooresboro,35.280073,-81.747146,18,2
-81.746636,35.664213,513,Burke,Walnut Hollow General Store,Morganton,35.664213,-81.746636,3,1
-81.744916,36.236933,514,Watauga,Boone Quality Plus,Vilas,36.236933,-81.744916,30,2
-81.740086,36.321983,515,Watauga,D & B Mini Mart,Zionville,36.321983,-81.740086,4,1
-81.724066,35.690003,516,Burke,New Salem General Store,Morganton,35.690003,-81.724066,5,1
-81.723156,35.756283,517,Burke,Discount Beverage,Morganton,35.756283,-81.723156,6,2
-81.722316,35.735473,518,Burke,Carbon City Quality Plus #130,Morganton,35.735473,-81.722316,30,2
-81.716566,35.737303,519,Burke,Ingles #120,Morganton,35.737303,-81.716566,36,4
-81.712866,35.751833,520,Burke,Minit Saver Market,Morganton,35.751833,-81.712866,14,2
-81.710086,35.750823,521,Burke,Gate Station #401,Morganton,35.750823,-81.710086,36,4
-81.709746,35.735663,522,Burke,Shop & Save #4,Morganton,35.735663,-81.709746,18,0
-81.70969,35.73566,523,Burke,Speedway #7964,Morganton,35.73566,-81.70969,24,4
-81.707728,35.305153,524,Cleveland,Deb's Mini Mart #8,Mooresboro,35.305153,-81.707728,12,1
-81.707236,35.255193,525,Cleveland,Hamrick Grocery,Shelby,35.255193,-81.707236,3,1
-81.705056,36.389753,526,Ashe,Donnelly's Store,Zionville,36.389753,-81.705056,2,1
-81.703006,36.207333,527,Richmond,Alco #13,Hamlet,36.207333,-81.703006,24,3
-81.703006,36.207333,528,Watauga,"Circle K #1599
Kangaroo Express #1599",Boone,36.207333,-81.703006,24,0
-81.698416,36.206793,529,Watauga,Speedway #7921,Boone,36.206793,-81.698416,24,2
-81.698306,35.714063,530,Burke,Jack B Quick #11,Morganton,35.714063,-81.698306,18,0
-81.697766,35.699853,531,Burke,Salem Express,Morganton,35.699853,-81.697766,12,2
-81.694786,35.716983,532,Burke,RaceWay #6738,Morganton,35.716983,-81.694786,60,4
-81.694156,35.720703,533,Burke,Citgo Food Mart,Morganton,35.720703,-81.694156,18,2
-81.693346,35.720393,534,Burke,The Pit Stop,Morganton,35.720393,-81.693346,36,0
-81.693206,36.221813,535,Watauga,Circle K #164,Boone,36.221813,-81.693206,14,2
-81.689486,35.742813,536,Burke,Shop And Save #9,Morganton,35.742813,-81.689486,18,0
-81.687526,35.757443,537,Burke,Holiday To Go #800,Morganton,35.757443,-81.687526,12,1
-81.686666,35.784923,538,Burke,Jack B Quick #10,Morganton,35.784923,-81.686666,20,2
-81.684676,35.743613,539,Burke,Causby's Service Center,Morganton,35.743613,-81.684676,0,0
-81.675036,36.215453,540,Watauga,Phil's Gas Town,Boone,36.215453,-81.675036,3,1
-81.674096,35.925403,541,Caldwell,Collettsville General Store,Collettsville,35.925403,-81.674096,7,2
-81.672926,35.724463,542,Burke,Tobacco Barn #2,Morganton,35.724463,-81.672926,8,1
-81.672396,35.733223,543,Burke,Quick Mart #2,Morganton,35.733223,-81.672396,24,2
-81.671976,36.208033,544,Watauga,Kangaroo Express #141,Boone,36.208033,-81.671976,12,0
-81.671786,36.132963,545,Watauga,Blowing Rock Citgo,Blowing Rock,36.132963,-81.671786,12,1
-81.669136,36.142043,546,Watauga,Speedway #7920,Blowing Rock,36.142043,-81.669136,24,4
-81.668976,36.205593,547,Watauga,Appalachian Exxon,Boone,36.205593,-81.668976,24,0
-81.668436,36.216132,548,Watauga,Penny Wise,Boone,36.216132,-81.668436,12,4
-81.666887,35.251933,549,Cleveland,Circle K 2720146,Boiling Springs,35.251933,-81.666887,12,0
-81.666476,35.803663,550,Burke,Shop & Save #3,Morganton,35.803663,-81.666476,3,1
-81.665916,36.203163,551,Watauga,Speedway #7923,Boone,36.203163,-81.665916,24,4
-81.665177,35.240263,552,Cleveland,Pats Store #6,Boiling Springs,35.240263,-81.665177,18,0
-81.664666,36.203293,553,Watauga,Scotchman #92,Boone,36.203293,-81.664666,24,2
-81.660677,35.250053,554,Cleveland,Southern Stores #110,Boiling Springs,35.250053,-81.660677,24,2
-81.658726,36.219433,555,Watauga,Speedway #7922,Boone,36.219433,-81.658726,24,4
-81.657876,35.723833,556,Burke,Speedway #7962,Morganton,35.723833,-81.657876,30,0
-81.656466,36.219533,557,Watauga,Speedway #7924,Boone,36.219533,-81.656466,24,2
-81.656376,35.751543,558,Burke,By Pass Package Store,Morganton,35.751543,-81.656376,25,2
-81.656216,35.752723,559,Burke,Tobacco Barn #3,Morganton,35.752723,-81.656216,6,0
-81.655726,36.196933,560,Watauga,Circle K #410,Boone,36.196933,-81.655726,24,4
-81.655176,35.721543,561,Burke,Quality Mart #22,Morganton,35.721543,-81.655176,24,4
-81.654907,35.293353,562,Cleveland,Pat's #5,Shelby,35.293353,-81.654907,14,0
-81.652276,36.200393,563,Watauga,Circle K #140,Boone,36.200393,-81.652276,12,0
-81.646876,35.853703,564,Caldwell,Rudisill Village Grocery,Morganton,35.853703,-81.646876,16,2
-81.645977,35.422403,565,Cleveland,Hometown Market,Shelby,35.422403,-81.645977,6,2
-81.645566,36.160943,566,Watauga,J & M General Store,Blowing Rock,36.160943,-81.645566,12,1
-81.643546,35.416893,567,Cleveland,Buck Saver #4,Polkville,35.416893,-81.643546,18,2
-81.639886,35.828003,568,Burke,Antioch Food Mart,Morganton,35.828003,-81.639886,13,2
-81.639236,36.220503,569,Watauga,Circle K #3790,Boone,36.220503,-81.639236,30,2
-81.636436,35.705243,570,Burke,Kountry Market,Morganton,35.705243,-81.636436,18,0
-81.636346,35.723983,571,Burke,Stop & Save,Morganton,35.723983,-81.636346,18,2
-81.634167,35.403823,572,Cleveland,Polkville Community Mart,Polkville,35.403823,-81.634167,12,3
-81.633186,35.747453,573,Burke,Shop & Save Food Mart #2,Morganton,35.747453,-81.633186,6,0
-81.621737,35.508703,574,Cleveland,Brackett's Oil Co.,Casar,35.508703,-81.621737,12,3
-81.616077,35.294873,575,Cleveland,Circle K #0395,Shelby,35.294873,-81.616077,18,2
-81.616077,35.294873,576,Cleveland,Stagecoach Hardware,Lawndale,35.294873,-81.616077,12,0
-81.613936,36.444563,577,Ashe,Hwy 88 Grocery,Creston,36.444563,-81.613936,4,2
-81.613017,35.322233,578,Cleveland,Harry's Quick Shop,Shelby,35.322233,-81.613017,12,2
-81.606506,36.447713,579,Ashe,Creston Superette,Creston,36.447713,-81.606506,2,1
-81.602907,35.758013,580,Burke,Jack B Quick #1,Drexel,35.758013,-81.602907,8,0
-81.600257,35.747353,581,Burke,Fast Stop #2,Valdese,35.747353,-81.600257,24,1
-81.600257,35.747353,582,Rowan,Fast Stop #2,East Spencer,35.747353,-81.600257,12,0
-81.599007,35.277683,583,Cleveland,Crest Quick Stop,Shelby,35.277683,-81.599007,2,1
-81.594316,36.051453,584,Caldwell,Blue Ridge Mountain Stop,Lenoir,36.051453,-81.594316,4,1
-81.593366,35.872973,585,Caldwell,Gamewell Superette,Lenoir,35.872973,-81.593366,12,2
-81.591917,35.254643,586,Cleveland,Riverbend Chevron,Shelby,35.254643,-81.591917,3,1
-81.587886,35.748373,587,Burke,East West Convenience Store,Valdese,35.748373,-81.587886,18,1
-81.585167,35.883023,588,Caldwell,Lenoir Gas House,Lenoir,35.883023,-81.585167,18,2
-81.578756,35.904153,589,Caldwell,Hill Top Market,Lenoir,35.904153,-81.578756,12,1
-81.577067,35.202513,590,Cleveland,Shoal Creek Quick Stop,Shelby,35.202513,-81.577067,2,0
-81.576737,35.364683,591,Cleveland,Padgetts,Shelby,35.364683,-81.576737,12,0
-81.572507,35.295933,592,Cleveland,Ingles Gas Express #12,Shelby,35.295933,-81.572507,30,0
-81.571537,35.258003,593,Cleveland,Village Pantry,Shelby,35.258003,-81.571537,18,0
-81.570297,35.348933,594,Cleveland,"Kebos Archery Shop, Inc.",Shelby,35.348933,-81.570297,18,1
-81.566226,35.895053,595,Caldwell,Fast Track #136,Lenoir,35.895053,-81.566226,24,0
-81.565726,35.980453,596,Caldwell,Cheek's Grill & Convenience,Lenoir,35.980453,-81.565726,19,0
-81.565717,35.744453,597,Burke,Nand Express,Valdese,35.744453,-81.565717,24,0
-81.564827,35.275593,598,Cleveland,Quick Stop,Shelby,35.275593,-81.564827,12,0
-81.560396,35.903553,599,Caldwell,Ross & Company,Lenoir,35.903553,-81.560396,18,2
-81.556467,35.264593,600,Cleveland,Thomas Petroleum,Shelby,35.264593,-81.556467,1,1
-81.555977,35.741703,601,Burke,Jack B Quick #6,Valdese,35.741703,-81.555977,24,2
-81.554377,35.290753,602,Cleveland,Cleveland Food Mart,Shelby,35.290753,-81.554377,4,0
-81.554027,35.292333,603,Cleveland,Khodal,Shelby,35.292333,-81.554027,2,1
-81.549927,35.281483,604,Cleveland,Kings Mountain Travel Center,Kings Mountain,35.281483,-81.549927,30,9
-81.549927,35.281483,605,Cleveland,Shelby Citgo,Shelby,35.281483,-81.549927,36,2
-81.544177,35.276743,606,Cleveland,Esha Food Mart,Shelby,35.276743,-81.544177,6,0
-81.543587,35.903243,607,Caldwell,Shop & Save,Lenoir,35.903243,-81.543587,4,0
-81.542717,35.278203,608,Cleveland,Southern Stores #103,Shelby,35.278203,-81.542717,24,0
-81.542256,35.938553,609,Caldwell,Holiday Superette,Lenoir,35.938553,-81.542256,20,2
-81.541837,35.995313,610,Caldwell,Yadkin Valley Grocery,Lenoir,35.995313,-81.541837,12,1
-81.540847,35.850723,611,Caldwell,Run In #274,Lenoir,35.850723,-81.540847,18,2
-81.539077,35.834973,612,Caldwell,Jack B Quick #8,Lenoir,35.834973,-81.539077,24,2
-81.537167,35.854493,613,Caldwell,Tim's Discount Foods,Lenoir,35.854493,-81.537167,7,0
-81.535697,35.873283,614,Caldwell,Connelly Springs Gas House,Lenoir,35.873283,-81.535697,18,2
-81.534107,35.906003,615,Caldwell,Holiday Food #2,Lenoir,35.906003,-81.534107,24,2
-81.533087,35.418323,616,Cleveland,Burns Mini Mart,Fallston,35.418323,-81.533087,5,0
-81.531067,35.915883,617,Caldwell,Quick Stop,Lenoir,35.915883,-81.531067,12,0
-81.530847,35.802983,618,Caldwell,Ingles #121,Granite Falls,35.802983,-81.530847,24,2
-81.530327,35.213383,619,Cleveland,Handy Mart #3,Grover,35.213383,-81.530327,6,1
-81.528857,35.272393,620,Cleveland,Super Dave's Quick Stop,Shelby,35.272393,-81.528857,6,0
-81.528727,35.932303,621,Caldwell,Gas & Go,Lenoir,35.932303,-81.528727,12,0
-81.52857,35.225,622,Cleveland,One Stop Store #104,Shelby,35.225,-81.52857,24,0
-81.528177,35.795893,623,Caldwell,Jack B Quick #5,Granite Falls,35.795893,-81.528177,16,0
-81.528157,35.299483,624,Cleveland,Eastside Kwik Mart,Shelby,35.299483,-81.528157,6,0
-81.527187,35.930593,625,Caldwell,Save More #316,Lenoir,35.930593,-81.527187,30,1
-81.525587,35.740893,626,Burke,Family Food Mart #2,Connelly Springs,35.740893,-81.525587,24,2
-81.525477,35.745343,627,Burke,Discount Foods,Rutherford College,35.745343,-81.525477,5,1
-81.525367,35.272983,628,Cleveland,Fast Stop #303,Shelby,35.272983,-81.525367,36,2
-81.524997,35.916973,629,Caldwell,Fastop #301,Lenoir,35.916973,-81.524997,36,2
-81.523027,35.307603,630,Cleveland,Curve View Quick Shop,Shelby,35.307603,-81.523027,24,1
-81.522987,35.305993,631,Cleveland,Scotchman BP,Shelby,35.305993,-81.522987,37,2
-81.522697,35.897833,632,Caldwell,Holiday Foods #15,Lenoir,35.897833,-81.522697,18,0
-81.522487,35.479063,633,Cleveland,Crossroad Mini Mart,Lawndale,35.479063,-81.522487,12,2
-81.521997,35.914563,634,Caldwell,Jason Mart,Lenoir,35.914563,-81.521997,24,0
-81.521017,35.313983,635,Cleveland,Save More #317,Shelby,35.313983,-81.521017,24,0
-81.519517,35.828663,636,Caldwell,"Neelkanth I, Inc",Hudson,35.828663,-81.519517,4,1
-81.519297,35.633933,637,Burke,Cubbard Express #14,Connelly Springs,35.633933,-81.519297,12,1
-81.517766,36.506393,638,Ashe,R & L Grocery,Lansing,36.506393,-81.517766,3,0
-81.516517,35.232023,639,Cleveland,Lowery's Country Corner,Shelby,35.232023,-81.516517,8,4
-81.516107,35.916313,640,Caldwell,Speedway #7972,Lenoir,35.916313,-81.516107,24,2
-81.515977,35.876433,641,Caldwell,Quick Way Superette,Lenoir,35.876433,-81.515977,4,0
-81.51165,35.29476,642,Cleveland,Short Stop,Shelby,35.29476,-81.51165,4,1
-81.509777,35.328773,643,Cleveland,Crossroads Mini Mart,Shelby,35.328773,-81.509777,12,2
-81.509507,35.668183,644,Burke,Miller Bridge Express,Connelly Springs,35.668183,-81.509507,2,1
-81.509437,35.246823,645,Cleveland,M & D Quick Stop #1,Shelby,35.246823,-81.509437,12,0
-81.506767,35.252973,646,Cleveland,Bradshaw's Food Mart,Shelby,35.252973,-81.506767,18,0
-81.506287,35.368703,647,Cleveland,Shelby Quality Plus #127,Shelby,35.368703,-81.506287,24,2
-81.506007,35.555593,648,Lincoln,Vale Hardware,Vale,35.555593,-81.506007,24,1
-81.505027,35.860713,649,Caldwell,Norwood Foods,Lenoir,35.860713,-81.505027,18,2
-81.504987,35.924463,650,Caldwell,Holiday Food Store #3,Lenoir,35.924463,-81.504987,26,4
-81.504687,35.861033,651,Caldwell,Food Fare #1,Hudson,35.861033,-81.504687,12,1
-81.503676,36.428103,652,Ashe,Miller's Country Store,West Jefferson,36.428103,-81.503676,12,2
-81.501757,35.450023,653,Cleveland,18 North Convenience,Lawndale,35.450023,-81.501757,12,4
-81.501737,35.555343,654,Lincoln,Kountry Korner,Vale,35.555343,-81.501737,24,1
-81.501367,35.829853,655,Caldwell,Market Basket #24,Hudson,35.829853,-81.501367,20,2
-81.501197,35.430163,656,Cleveland,Community Mart #1,Lawndale,35.430163,-81.501197,12,2
-81.501176,36.425263,657,Ashe,"Ashe Abattoir, Inc.",West Jefferson,36.425263,-81.501176,8,2
-81.501157,35.428873,658,Cleveland,D & N  Mini Mart,Fallston,35.428873,-81.501157,14,1
-81.499787,35.739663,659,Burke,Knob Superette,Connelly Springs,35.739663,-81.499787,12,1
-81.498476,36.555143,660,Ashe,Miller's  Country Store #2,Lansing,36.555143,-81.498476,2,1
-81.497757,35.271883,661,Cleveland,74 Stop N Shop,Shelby,35.271883,-81.497757,24,4
-81.497497,35.928423,662,Caldwell,Hibriten Gas House,Lenoir,35.928423,-81.497497,24,2
-81.496387,35.272833,663,Cleveland,Xpress Stop #4,Shelby,35.272833,-81.496387,36,7
-81.492947,35.845383,664,Caldwell,Hudson Superette,Hudson,35.845383,-81.492947,8,0
-81.492117,35.283713,665,Cleveland,7-Eleven #36997,Shelby,35.283713,-81.492117,18,1
-81.490156,36.378103,666,Ashe,Mike's Community Mart,West Jefferson,36.378103,-81.490156,12,2
-81.490026,36.404143,667,Ashe,Speedway #7910,West Jefferson,36.404143,-81.490026,24,2
-81.489536,36.409203,668,Ashe,Mid Town Convenience,West Jefferson,36.409203,-81.489536,1,1
-81.489056,36.393913,669,Ashe,Backyard Convenience,West Jefferson,36.393913,-81.489056,12,2
-81.487127,35.858193,670,Caldwell,Scotchman #3726,Hudson,35.858193,-81.487127,36,0
-81.487117,35.295613,671,Cleveland,Swifty Village Mart,Shelby,35.295613,-81.487117,24,2
-81.481466,36.391403,672,Ashe,Murphy USA #6695,West Jefferson,36.391403,-81.481466,24,2
-81.479137,35.265253,673,Cleveland,Scotchman One Stop # 3707,Shelby,35.265253,-81.479137,33,5
-81.478737,35.831003,674,Caldwell,Sawmills Hardware,Hudson,35.831003,-81.478737,0,0
-81.476077,35.827333,675,Caldwell,Market Basket #26,Hudson,35.827333,-81.476077,18,2
-81.475927,35.824583,676,Caldwell,P & D Grocery & Deli,Granite Falls,35.824583,-81.475927,6,1
-81.473596,36.419093,677,Ashe,Dollar Mart #6,Jefferson,36.419093,-81.473596,12,4
-81.466477,35.718353,678,Burke,Jack B Quick #7,Icard,35.718353,-81.466477,24,4
-81.463077,36.435463,679,Ashe,The Country Market,Jefferson,36.435463,-81.463077,2,2
-81.455887,35.508813,680,Lincoln,Food Country,Vale,35.508813,-81.455887,2,0
-81.452897,35.832663,681,Caldwell,Sunshine Superette,Hudson,35.832663,-81.452897,6,1
-81.452627,35.708323,682,Burke,Corner Food Mart,Hickory,35.708323,-81.452627,14,2
-81.449057,35.808933,683,Caldwell,Run IN 276,Granite Falls,35.808933,-81.449057,12,1
-81.447876,35.3477,684,Cleveland,"Chicken Hill Mart
Lake Corner Convenience",Cherryville,35.3477,-81.447876,18,1
-81.445527,36.418063,685,Ashe,The Corner Market,Jefferson,36.418063,-81.445527,18,4
-81.439317,36.353233,686,Ashe,163 Service & Grocery,West Jefferson,36.353233,-81.439317,3,1
-81.438187,35.288943,687,Cleveland,Woodbridge Handy Mart,Kings Mountain,35.288943,-81.438187,14,2
-81.438177,35.710493,688,Burke,Hildebran Shell,Hildebran,35.710493,-81.438177,24,2
-81.437567,35.759963,689,Burke,Market Basket #22,Hickory,35.759963,-81.437567,18,2
-81.436807,35.710483,690,Burke,Cubbard Express #3,Hildebran,35.710483,-81.436807,12,0
-81.431747,35.769213,691,Burke,The Ole Store,Rhodhiss,35.769213,-81.431747,12,2
-81.431147,35.811223,692,Caldwell,Speedway #7961,Granite Falls,35.811223,-81.431147,24,0
-81.430307,35.715453,693,Burke,B & B Royal Food Store,Hildebran,35.715453,-81.430307,12,2
-81.429917,35.361553,694,Cleveland,Waco Stop & Shop,Waco,35.361553,-81.429917,12,1
-81.429067,35.795573,695,Caldwell,Fast Stop #461,Granite Falls,35.795573,-81.429067,12,1
-81.427747,35.793633,696,Caldwell,Market Basket #23,Granite Falls,35.793633,-81.427747,18,3
-81.427317,35.667753,697,Catawba,C-S Mart,Hickory,35.667753,-81.427317,4,1
-81.427057,35.668983,698,Catawba,Advent Grocery & Service,Hickory,35.668983,-81.427057,4,0
-81.426447,35.812593,699,Caldwell,Market Basket #21,Granite Falls,35.812593,-81.426447,19,2
-81.424987,35.272673,700,Cleveland,Tom's Family Mart,Kings Mountain,35.272673,-81.424987,12,1
-81.424227,35.441303,701,Lincoln,Triple B One Stop,Cherryville,35.441303,-81.424227,2,1
-81.423417,35.706783,702,Burke,Run In #114,Hildebran,35.706783,-81.423417,18,2
-81.423287,35.800623,703,Caldwell,Jack B Quick #2,Granite Falls,35.800623,-81.423287,24,0
-81.422897,36.448313,704,Ashe,Brinegars Service,Crumpler,36.448313,-81.422897,5,1
-81.419307,35.496983,705,Lincoln,Dan's Superette,Vale,35.496983,-81.419307,18,2
-81.414807,35.716673,706,Burke,Happy Day Grocery,Hildebran,35.716673,-81.414807,5,2
-81.412297,35.216613,707,Cleveland,Grandpa's Country Store,Kings Mountain,35.216613,-81.412297,5,1
-81.410077,36.438943,708,Ashe,Nathan's Creek General Store,Jefferson,36.438943,-81.410077,5,1
-81.409907,35.540103,709,Lincoln,"Cat Square Superette, Inc",Vale,35.540103,-81.409907,3,0
-81.406667,36.394333,710,Ashe,Sheets Grocery,Jefferson,36.394333,-81.406667,3,1
-81.405307,35.246203,711,Cleveland,Scotchman #3725,Kings Mountain,35.246203,-81.405307,30,4
-81.404077,35.243423,712,Cleveland,Ingles #147,Kings Mountain,35.243423,-81.404077,36,4
-81.401187,35.593823,713,Catawba,Banoak Food Center,Vale,35.593823,-81.401187,2,0
-81.394227,35.780023,714,Caldwell,Murphy Express #8504,Granite Falls,35.780023,-81.394227,48,4
-81.393537,35.383723,715,Gaston,Delview Mart,Cherryville,35.383723,-81.393537,3,0
-81.392777,35.805063,716,Catawba,Shell Brothers Automated Fuel Stop,Hickory,35.805063,-81.392777,4,4
-81.392637,35.236733,717,Cleveland,Countryside Stop and Shop,Kings Mountain,35.236733,-81.392637,18,0
-81.390647,36.503213,718,Ashe,"Riverside Store, Inc.",Crumpler,36.503213,-81.390647,1,1
-81.388657,35.379233,719,Gaston,On The Ways,Cherryville,35.379233,-81.388657,8,0
-81.388327,35.487573,720,Lincoln,West Express,Vale,35.487573,-81.388327,24,2
-81.381567,35.381373,721,Gaston,Cherryville Food Mart,Cherryville,35.381373,-81.381567,6,0
-81.381207,35.381883,722,Gaston,Tobacco House,Cherryville,35.381883,-81.381207,12,2
-81.380107,35.631683,723,Catawba,Three Way Superette,Hickory,35.631683,-81.380107,12,3
-81.378047,36.492953,724,Ashe,Community Market,Crumpler,36.492953,-81.378047,1,1
-81.377547,35.680933,725,Catawba,Mountain View Market,Hickory,35.680933,-81.377547,6,1
-81.376357,35.728223,726,Montgomery,Quik Chek,Candor,35.728223,-81.376357,24,6
-81.376357,35.728223,727,Catawba,Shop & Save,Hickory,35.728223,-81.376357,12,0
-81.375987,35.858583,728,Caldwell,Pappy's Market,Granite Falls,35.858583,-81.375987,6,1
-81.375427,35.536573,729,Lincoln,Warlick's Short Stop,Vale,35.536573,-81.375427,6,2
-81.375317,35.627223,730,Catawba,Cubbard Express #8,Hickory,35.627223,-81.375317,24,0
-81.373917,35.722193,731,Catawba,The Pit Stop,Hickory,35.722193,-81.373917,12,1
-81.373797,35.684293,732,Catawba,Mountain View Gas House,Hickory,35.684293,-81.373797,18,0
-81.373077,35.685413,733,Catawba,Speedway #7966,Hickory,35.685413,-81.373077,24,2
-81.372387,35.382203,734,Gaston,McNeely Oil Company,Cherryville,35.382203,-81.372387,3,1
-81.371717,35.722243,735,Catawba,Sunhouse #2,Hickory,35.722243,-81.371717,12,0
-81.370067,35.367143,736,Gaston,Friendship Foodmart,Cherryville,35.367143,-81.370067,3,0
-81.369717,36.316013,737,Ashe,Run In Food Store #833,West Jefferson,36.316013,-81.369717,18,0
-81.368807,36.086123,738,Wilkes,Trips Market,Ferguson,36.086123,-81.368807,5,1
-81.367987,35.385753,739,Gaston,Southern Store #101,Cherryville,35.385753,-81.367987,26,2
-81.367897,35.729283,740,Catawba,Save More #624,Hickory,35.729283,-81.367897,30,0
-81.366467,35.735533,741,Catawba,Sunhouse Food & Gas,Hickory,35.735533,-81.366467,12,0
-81.366177,35.748063,742,Catawba,RaceWay #6744,Hickory,35.748063,-81.366177,60,0
-81.366157,35.734813,743,Catawba,Cubbard Express #1,Hickory,35.734813,-81.366157,36,4
-81.365507,35.744503,744,Catawba,321 Convenience Store,Hickory,35.744503,-81.365507,36,2
-81.364887,35.733943,745,Catawba,Speedway #7565,Hickory,35.733943,-81.364887,24,4
-81.362827,35.721893,746,Catawba,Speedway #7969,Hickory,35.721893,-81.362827,48,4
-81.362497,35.746773,747,Catawba,Winns Express,Hickory,35.746773,-81.362497,5,0
-81.361547,35.746143,748,Catawba,Mel's Superette,Hickory,35.746143,-81.361547,3,1
-81.361547,35.239943,749,Cleveland,Parkers BP,Kings Mountain,35.239943,-81.361547,18,1
-81.360807,35.793123,750,Caldwell,Market Basket #25,Granite Falls,35.793123,-81.360807,25,2
-81.360647,35.386183,751,Gaston,Heafners Superette,Cherryville,35.386183,-81.360647,13,2
-81.355887,35.280303,752,Cleveland,3 Points Market & Grill,Kings Mountain,35.280303,-81.355887,12,1
-81.353497,35.228773,753,Cleveland,K D Mart,Kings Mountain,35.228773,-81.353497,24,1
-81.352137,35.275373,754,Cleveland,Rick's Ole Country Store,Kings Mountain,35.275373,-81.352137,16,2
-81.351217,35.249433,755,Cleveland,Mountain Market,Kings Mountain,35.249433,-81.351217,12,0
-81.348757,35.248653,756,Cleveland,Kings Food Store,Kings Mountain,35.248653,-81.348757,12,1
-81.347947,35.731103,757,Catawba,Lucky Stop,Hickory,35.731103,-81.347947,8,4
-81.344607,35.725583,758,Catawba,Q Express,Hickory,35.725583,-81.344607,12,0
-81.341327,35.244893,759,Cleveland,Greg's Food Mart,Kings Mountain,35.244893,-81.341327,18,0
-81.340507,35.398763,760,Gaston,Murphy USA #7464,Cherryville,35.398763,-81.340507,36,4
-81.33548,35.75079,761,Catawba,Lowes Foods #245,Hickory,35.75079,-81.33548,36,4
-81.334627,35.748003,762,Catawba,Shiv Mart,Hickory,35.748003,-81.334627,18,0
-81.334507,35.748533,763,Catawba,Cubbard Express #5,Hickory,35.748533,-81.334507,24,0
-81.334347,35.807793,764,Alexander,River's Edge Marina,Hickory,35.807793,-81.334347,4,0
-81.333927,35.241113,765,Cleveland,Silver Express,Kings Mountain,35.241113,-81.333927,24,0
-81.333667,35.228203,766,Cleveland,Battleground Petroleum,Kings Mountain,35.228203,-81.333667,18,0
-81.332227,35.765913,767,Catawba,Rosales Kwik Stop,Hickory,35.765913,-81.332227,24,0
-81.331347,35.245333,768,Cleveland,Circle K 2723970,Kings Mountain,35.245333,-81.331347,24,4
-81.331227,35.769403,769,Catawba,Circle K #3958,Hickory,35.769403,-81.331227,64,16
-81.33033,35.71259,770,Catawba,Total Convenience Market,Hickory,35.71259,-81.33033,28,9
-81.329357,35.251393,771,Cleveland,Linwood Family Mart,Kings Mountain,35.251393,-81.329357,24,1
-81.329107,35.734993,772,Catawba,Fast & Fresh Food Store #56,Hickory,35.734993,-81.329107,3,0
-81.32874,35.251061,773,Cleveland,Tobacco Barn,Kings Mountain,35.251061,-81.32874,3,0
-81.323237,35.727213,774,Catawba,Fast & Fresh Food Store #58,Hickory,35.727213,-81.323237,3,0
-81.318597,35.365823,775,Gaston,Hillside Market & Grill,Bessemer City,35.365823,-81.318597,24,2
-81.317797,35.473493,776,Lincoln,Bob's Superette,Lincolnton,35.473493,-81.317797,8,1
-81.317617,36.395633,777,Ashe,Jerry's Midway Market,Laurel Springs,36.395633,-81.317617,2,1
-81.313817,35.717713,778,Catawba,RaceWay #6739,Hickory,35.717713,-81.313817,72,0
-81.312257,35.710483,779,Catawba,Quality Mart #5,Hickory,35.710483,-81.312257,24,0
-81.310487,35.791713,780,Catawba,Speedway #7968,Hickory,35.791713,-81.310487,24,2
-81.310077,35.419823,781,Lincoln,One Stop Store #113,Crouse,35.419823,-81.310077,12,0
-81.309757,35.841223,782,Alexander,Cubbard Express #6,Hickory,35.841223,-81.309757,18,2
-81.309437,35.791203,783,Catawba,Honey-Pik,Hickory,35.791203,-81.309437,10,0
-81.307007,35.360823,784,Gaston,Guy's Place,Bessemer City,35.360823,-81.307007,12,1
-81.306727,35.707713,785,Catawba,Speedway #7967,Hickory,35.707713,-81.306727,24,4
-81.306357,35.739773,786,Catawba,Cubbard Express #7,Hickory,35.739773,-81.306357,24,2
-81.305337,35.766353,787,Catawba,Lowes Foods #153,Hickory,35.766353,-81.305337,36,4
-81.305287,35.812483,788,Richmond,Alco #11,Rockingham,35.812483,-81.305287,24,0
-81.305287,35.812483,789,Alexander,Kountry Kwik Stop,Hickory,35.812483,-81.305287,12,0
-81.304637,35.741943,790,Catawba,Top Express,Hickory,35.741943,-81.304637,12,0
-81.304027,35.755443,791,Catawba,Cubbard Express #2,Hickory,35.755443,-81.304027,12,0
-81.299467,35.742763,792,Catawba,Holiday Food Store #4,Hickory,35.742763,-81.299467,18,2
-81.299007,36.515983,793,Alleghany,Pine Valley Grocery,Piney Creek,36.515983,-81.299007,3,1
-81.298107,35.508253,794,Lincoln,Hamptons Grocery & Service,Lincolnton,35.508253,-81.298107,12,1
-81.297617,36.550973,795,Alleghany,Piney Creek General Store,Piney Creek,36.550973,-81.297617,2,0
-81.294917,35.782353,796,Catawba,Little Market Basket # 9,Hickory,35.782353,-81.294917,12,0
-81.293887,35.732623,797,Catawba,Ronald's Superette,Hickory,35.732623,-81.293887,2,0
-81.293417,35.701403,798,Catawba,Circle K #27523954,Hickory,35.701403,-81.293417,64,16
-81.293317,35.700603,799,Catawba,Propst Superette,Hickory,35.700603,-81.293317,12,2
-81.288477,35.283983,800,Gaston,Kingsway #5,Bessemer City,35.283983,-81.288477,11,1
-81.287827,35.701153,801,Catawba,Sam's Club #6355,Hickory,35.701153,-81.287827,24,0
-81.286137,35.752103,802,Catawba,Speedway #7963,Hickory,35.752103,-81.286137,30,2
-81.285727,35.285373,803,Gaston,Queen's General Store,Bessemer City,35.285373,-81.285727,4,0
-81.284607,36.181903,804,Wilkes,Ambar Mart,Purlear,36.181903,-81.284607,3,1
-81.283857,36.143673,805,Wilkes,Wyke's Food Mart,Wilkesboro,36.143673,-81.283857,12,2
-81.277927,35.754393,806,Catawba,KS Mart,Hickory,35.754393,-81.277927,24,2
-81.272067,35.459623,807,Lincoln,Hilltop Superette,Lincolnton,35.459623,-81.272067,4,0
-81.270337,35.760123,808,Currituck,Coinjock Quality Plus,Barco,35.760123,-81.270337,24,4
-81.270337,35.760123,809,Catawba,Springs Road Quality Plus,Hickory,35.760123,-81.270337,12,6
-81.270147,35.476943,810,Lincoln,Westside Market,Lincolnton,35.476943,-81.270147,8,1
-81.268847,35.645353,811,Catawba,Circle K #3026,Newton,35.645353,-81.268847,12,0
-81.268767,35.644593,812,Catawba,Fast Phils #145,Newton,35.644593,-81.268767,30,2
-81.267307,35.287473,813,Gaston,Silver Express,Bessemer City,35.287473,-81.267307,15,0
-81.266617,35.765223,814,Catawba,Propst Superette #11,Hickory,35.765223,-81.266617,24,0
-81.265047,35.721783,815,Catawba,Fairgrove Service Center,Conover,35.721783,-81.265047,8,3
-81.263597,35.706263,816,Catawba,Speedy Mart Solo,Conover,35.706263,-81.263597,30,5
-81.263377,35.705673,817,Catawba,Fairgrove Food Shop,Conover,35.705673,-81.263377,12,0
-81.263297,35.468063,818,Lincoln,Southern Convenience #590,Lincolnton,35.468063,-81.263297,10,1
-81.262537,35.697713,819,Catawba,Citgo Fuel Center,Newton,35.697713,-81.262537,13,4
-81.262297,35.705203,820,Catawba,Fast Track #112,Conover,35.705203,-81.262297,18,0
-81.261867,35.469453,821,Lincoln,Quik Shoppe #119,Lincolnton,35.469453,-81.261867,24,0
-81.261697,35.512543,822,Lincoln,Handy Corner,Lincolnton,35.512543,-81.261697,24,1
-81.261647,35.922773,823,Alexander,Propst Superette #4,Taylorsville,35.922773,-81.261647,12,1
-81.261537,35.699273,824,Catawba,Run In Food Store #726,Conover,35.699273,-81.261537,0,0
-81.260917,35.196363,825,Gaston,Cornerstone Grocery,Gastonia,35.196363,-81.260917,5,0
-81.260617,35.578413,826,Catawba,E-Mart,Maiden,35.578413,-81.260617,12,1
-81.258397,35.267803,827,Gaston,Edgewood Mini-Mart,Bessemer City,35.267803,-81.258397,24,0
-81.255167,36.226503,828,Wilkes,Deep Food Market,Millers Creek,36.226503,-81.255167,7,1
-81.254327,35.595403,829,Catawba,Country Market,Maiden,35.595403,-81.254327,24,6
-81.253897,35.250243,830,Gaston,Mountain Stop Convenience,Gastonia,35.250243,-81.253897,4,1
-81.251847,35.488913,831,Lincoln,Kingsway #18,Lincolnton,35.488913,-81.251847,28,2
-81.249397,35.740033,832,Catawba,Propst Superette #5,Hickory,35.740033,-81.249397,24,2
-81.249357,35.474183,833,Lincoln,Save Mart,Lincolnton,35.474183,-81.249357,18,0
-81.248337,35.457793,834,Lincoln,Buck Saver #1,Lincolnton,35.457793,-81.248337,9,0
-81.245707,36.209063,835,Wilkes,Creek Stop Grocery,Millers Creek,36.209063,-81.245707,10,4
-81.245247,36.150133,836,Wilkes,P & J Express,Wilkesboro,36.150133,-81.245247,12,0
-81.244257,35.496033,837,Lincoln,Cardinal Quick Stop,Lincolnton,35.496033,-81.244257,12,1
-81.243077,35.467973,838,Lincoln,OM Mart,Lincolnton,35.467973,-81.243077,24,1
-81.240887,35.286083,839,Gaston,Triple E Express & Grill,Gastonia,35.286083,-81.240887,24,1
-81.240577,35.345463,840,Gaston,Kingsway #21,Dallas,35.345463,-81.240577,12,1
-81.240187,36.427323,841,Alleghany,Mabes Gas & Grocery,Laurel Springs,36.427323,-81.240187,3,1
-81.239377,35.476193,842,Lincoln,Market Basket #19,Lincolnton,35.476193,-81.239377,24,2
-81.239147,36.189433,843,Wilkes,Millers Creek Market,Millers Creek,36.189433,-81.239147,12,1
-81.238807,35.447333,844,Lincoln,Fuel N Shop,Lincolnton,35.447333,-81.238807,12,0
-81.238367,36.188813,845,Wilkes,Fast Track #141,Millers Creek,36.188813,-81.238367,24,2
-81.238107,35.231893,846,Gaston,Bre-Inas Corner Market,Gastonia,35.231893,-81.238107,18,0
-81.234557,35.278813,847,Gaston,S Mart,Gastonia,35.278813,-81.234557,24,5
-81.233617,35.695193,848,Catawba,Circle K #3963,Conover,35.695193,-81.233617,30,0
-81.232697,35.277853,849,Gaston,Mini Shell,Gastonia,35.277853,-81.232697,12,0
-81.232237,35.478213,850,Lincoln,Circle K #3956,Lincolnton,35.478213,-81.232237,64,16
-81.232137,36.149333,851,Wilkes,Fast Track #142,Wilkesboro,36.149333,-81.232137,30,5
-81.232127,35.696423,852,Catawba,Butch's Service Center,Conover,35.696423,-81.232127,6,0
-81.230597,35.658183,853,Catawba,Circle K #3024,Newton,35.658183,-81.230597,22,2
-81.229947,35.675303,854,Catawba,Speedway #7955,Newton,35.675303,-81.229947,30,2
-81.228877,35.681133,855,Catawba,Cubbard Express #4,Newton,35.681133,-81.228877,24,1
-81.228627,35.687733,856,Catawba,Newton Gas House,Newton,35.687733,-81.228627,18,2
-81.226667,35.697333,857,Catawba,Citgo Food Mart,Conover,35.697333,-81.226667,30,3
-81.225357,35.478623,858,Lincoln,RaceWay,Lincolnton,35.478623,-81.225357,72,0
-81.224967,35.260043,859,Gaston,Speedway #7991,Gastonia,35.260043,-81.224967,24,2
-81.223817,35.261823,860,Gaston,Murphy USA #7058,Gastonia,35.261823,-81.223817,36,4
-81.223147,35.270753,861,Gaston,Kingsway #4,Gastonia,35.270753,-81.223147,24,2
-81.222367,35.258763,862,Gaston,Omni Mart #9,Gastonia,35.258763,-81.222367,18,0
-81.220227,35.707643,863,Catawba,Sunshine Mart,Conover,35.707643,-81.220227,0,0
-81.219687,35.706733,864,Catawba,Quick Stop,Conover,35.706733,-81.219687,18,2
-81.219027,35.529543,865,Lincoln,Maiden Express,Lincolnton,35.529543,-81.219027,24,0
-81.218957,35.706403,866,Catawba,Conover Convenience,Conover,35.706403,-81.218957,12,0
-81.218287,36.150143,867,Wilkes,Save More Wilkesboro #318,Wilkesboro,36.150143,-81.218287,42,1
-81.217517,35.478853,868,Lincoln,Circle K 4663,Lincolnton,35.478853,-81.217517,36,0
-81.215587,35.720803,869,Catawba,Circle K #2723021,Conover,35.720803,-81.215587,24,0
-81.215407,35.655793,870,Catawba,E-Z Way Food Store,Newton,35.655793,-81.215407,18,1
-81.215137,35.720773,871,Catawba,Shell Food Mart,Conover,35.720773,-81.215137,24,2
-81.214657,35.588013,872,Catawba,Propst Superette #3,Maiden,35.588013,-81.214657,12,0
-81.21455,35.259579,873,Gaston,Quik Trip #1043,Gastonia,35.259579,-81.21455,48,4
-81.214157,35.682393,874,Catawba,Circle K #2720240,Newton,35.682393,-81.214157,12,0
-81.212697,35.479363,875,Lincoln,Kingsway #17,Lincolnton,35.479363,-81.212697,24,0
-81.212237,35.459373,876,Lincoln,Country Club Market,Lincolnton,35.459373,-81.212237,7,1
-81.21058,35.72494,877,Catawba,Murphy Express #7498,Conover,35.72494,-81.21058,36,4
-81.210077,36.132603,878,Wilkes,Ashley Farms II,Wilkesboro,36.132603,-81.210077,4,0
-81.209997,35.387703,879,Gaston,Dean's Superette,Dallas,35.387703,-81.209997,6,0
-81.208897,35.480723,880,Lincoln,Times Turnaround,Lincolnton,35.480723,-81.208897,38,4
-81.208017,35.257393,881,Gaston,Omni Mart #33,Gastonia,35.257393,-81.208017,24,0
-81.20767,35.701226,882,Catawba,"On The Way, Inc.",Conover,35.701226,-81.20767,24,2
-81.207137,35.257833,883,Gaston,Kingsway #10,Gastonia,35.257833,-81.207137,18,0
-81.206277,35.207743,884,Gaston,Raceway #8,Gastonia,35.207743,-81.206277,36,6
-81.205857,35.263113,885,Gaston,S&R Stop Shop,Gastonia,35.263113,-81.205857,12,0
-81.204587,35.338373,886,Gaston,Will's Food Store,Dallas,35.338373,-81.204587,12,2
-81.204357,35.572843,887,Catawba,Homerun Market,Maiden,35.572843,-81.204357,12,0
-81.204157,35.826943,888,Alexander,Lake Hickory Scua Center,Taylorsville,35.826943,-81.204157,4,0
-81.202837,35.413933,889,Lincoln,Wills #4,Lincolnton,35.413933,-81.202837,12,0
-81.201917,35.315603,890,Gaston,Handy Pantry #4,Dallas,35.315603,-81.201917,12,2
-81.200797,36.135023,891,Wilkes,Market Basket,Wilkesboro,36.135023,-81.200797,18,2
-81.199867,35.225763,892,Gaston,Speedway #7977,Gastonia,35.225763,-81.199867,24,3
-81.199397,35.226663,893,Gaston,QSC Food Mart,Gastonia,35.226663,-81.199397,12,0
-81.198637,36.150473,894,Wilkes,Speedway #7912,Wilkesboro,36.150473,-81.198637,30,4
-81.198547,35.262213,895,Gaston,Kingsway #1,Gastonia,35.262213,-81.198547,12,0
-81.197327,35.956623,896,Alexander,Propst Superette #9,Taylorsville,35.956623,-81.197327,18,2
-81.197197,35.230113,897,Gaston,Mikes Food Store,Gastonia,35.230113,-81.197197,12,0
-81.196277,35.569873,898,Catawba,Circle K #2720239,Maiden,35.569873,-81.196277,12,0
-81.195627,36.150453,899,Wilkes,Run In,Wilkesboro,36.150453,-81.195627,36,1
-81.195097,35.494373,900,Lincoln,Citgo Country Corner,Lincolnton,35.494373,-81.195097,12,1
-81.195047,35.239003,901,Gaston,Gastonia Express,Gastonia,35.239003,-81.195047,24,0
-81.194977,35.232983,902,Gaston,York Express Mart,Gastonia,35.232983,-81.194977,24,0
-81.193447,35.233063,903,Gaston,Clemmers Country Corner,Gastonia,35.233063,-81.193447,30,2
-81.192627,36.169113,904,Wilkes,The Grocery Bag #1,North Wilkesboro,36.169113,-81.192627,12,0
-81.191347,35.702303,905,Catawba,Circle K #2723025,Conover,35.702303,-81.191347,16,1
-81.191187,35.871503,906,Alexander,Pahal Shop & Save,Taylorsville,35.871503,-81.191187,12,0
-81.191007,35.315853,907,Gaston,World #2,Dallas,35.315853,-81.191007,24,2
-81.190807,35.248403,908,Gaston,South York Express,Gastonia,35.248403,-81.190807,12,0
-81.190687,35.794933,909,Catawba,Propst Superette #2,Conover,35.794933,-81.190687,12,1
-81.190087,35.813313,910,Catawba,Little Market Basket #18,Conover,35.813313,-81.190087,12,1
-81.189177,36.243623,911,Wilkes,Southern Country Store,North Wilkesboro,36.243623,-81.189177,4,1
-81.188867,35.720863,912,Catawba,Pilot Travel Center #7971,Conover,35.720863,-81.188867,24,11
-81.188367,35.286223,913,Gaston,Circle K #3967,Gastonia,35.286223,-81.188367,18,2
-81.188237,35.280763,914,Gaston,Ganesha Food Mart,Gastonia,35.280763,-81.188237,42,4
-81.188147,35.270143,915,Gaston,S & K Express,Gastonia,35.270143,-81.188147,24,0
-81.187507,35.287353,916,Gaston,Circle K #3974,Gastonia,35.287353,-81.187507,36,3
-81.187347,36.265313,917,Wilkes,Creekside Grocery,North Wilkesboo,36.265313,-81.187347,2,1
-81.187167,35.921963,918,Alexander,Market Basket #3,Taylorsville,35.921963,-81.187167,12,0
-81.186827,35.922313,919,Alexander,4 Brothers Food Store #308,Taylorsville,35.922313,-81.186827,24,2
-81.186687,35.663803,920,Catawba,Propst Superette #8,Newton,35.663803,-81.186687,12,0
-81.186277,35.839263,921,Alexander,Highway 16 Superette,Taylorsville,35.839263,-81.186277,18,4
-81.18492,35.315997,922,Gaston,Ingles #746,Dallas,35.315997,-81.18492,48,4
-81.184247,35.722333,923,Catawba,Homerun Marker #7,Conover,35.722333,-81.184247,24,2
-81.184197,35.253423,924,Gaston,Rosales Kwik Mart,Gastonia,35.253423,-81.184197,12,2
-81.182697,36.094983,925,Wilkes,Moravian Mart,Moravian Fall,36.094983,-81.182697,6,0
-81.179437,35.253903,926,Gaston,Gaston Rentals Inc.,Gastonia,35.253903,-81.179437,1,1
-81.178117,36.236143,927,Wilkes,Village Market #2,North Wilkesboro,36.236143,-81.178117,16,2
-81.177607,35.918963,928,Alexander,Market Basket #4,Taylorsville,35.918963,-81.177607,6,0
-81.177457,35.902723,929,Alexander,Market Basket #20,Taylorsville,35.902723,-81.177457,18,2
-81.177437,35.909103,930,Alexander,Murphy USA #6676,Taylorsville,35.909103,-81.177437,24,2
-81.176844,35.266276,931,Gaston,QuikTrip #1045,Gastonia,35.266276,-81.176844,60,4
-81.176707,36.141723,932,Wilkes,College Park Convience Store,Wilkesboro,36.141723,-81.176707,12,1
-81.176097,35.253163,933,Gaston,S & D Food Mart,Gastonia,35.253163,-81.176097,12,0
-81.175787,35.468263,934,Lincoln,Jerry's One Stop,Iron Station,35.468263,-81.175787,12,0
-81.175047,36.100073,935,Wilkes,Village Market #3,Moravian Falls,36.100073,-81.175047,18,2
-81.174757,35.247863,936,Gaston,Save Mart #220,Gastonia,35.247863,-81.174757,30,0
-81.174647,35.766033,937,Catawba,Propst Superette #10,Conover,35.766033,-81.174647,12,2
-81.174127,36.153083,938,Wilkes,4 Brothers Food Store #400,North Wilkesboro,36.153083,-81.174127,24,2
-81.173377,35.683423,939,Catawba,Whistle Stop Convenience Store,Conover,35.683423,-81.173377,4,0
-81.173277,35.923083,940,Alexander,Pavan Food Store,Taylorsville,35.923083,-81.173277,8,0
-81.171507,36.140823,941,Wilkes,Fast Track #113,Wilkesboro,36.140823,-81.171507,18,0
-81.170457,35.262663,942,Gaston,Local Market #7,Gastonia,35.262663,-81.170457,20,1
-81.169387,35.223723,943,Gaston,Kingsway #15,Gastonia,35.223723,-81.169387,18,2
-81.169387,35.223723,944,Gaston,Kingsway #5,Gastonia,35.223723,-81.169387,18,2
-81.167337,35.252903,945,Gaston,Garrison Express Mart,Gastonia,35.252903,-81.167337,4,0
-81.166827,35.215363,946,Gaston,Times Turnaround #22,Gastonia,35.215363,-81.166827,24,2
-81.166757,36.131293,947,Wilkes,4 Brothers Food Store #401,Wilkesboro,36.131293,-81.166757,12,0
-81.166477,35.316463,948,Gaston,Dallas Mini Mart,Dallas,35.316463,-81.166477,12,2
-81.164577,36.159263,949,Wilkes,Sar Store,North Wilkesboro,36.159263,-81.164577,12,0
-81.164567,35.207023,950,Gaston,Omni Mart,Gastonia,35.207023,-81.164567,12,0
-81.163047,36.527643,951,Alleghany,Twin Oak General Store,Sparta,36.527643,-81.163047,6,1
-81.162937,35.920093,952,Alexander,Bumgarner Card Access,Taylorsville,35.920093,-81.162937,3,2
-81.162367,35.271133,953,Gaston,D Fast,Gastonia,35.271133,-81.162367,18,0
-81.161097,36.146133,954,Wilkes,Fuelex Fas-Way,Wilkesboro,36.146133,-81.161097,3,1
-81.161077,36.146193,955,Cabarrus,Circle K #2721524,Kannapolis,36.146193,-81.161077,48,4
-81.159687,35.347143,956,Gaston,Crossroads General Store,Dallas,35.347143,-81.159687,3,0
-81.159017,35.298213,957,Gaston,Lucky 7 Food Market,Gastonia,35.298213,-81.159017,18,0
-81.158577,36.158133,958,Wilkes,West Park Citgo,North Wilkesboro,36.158133,-81.158577,17,0
-81.157307,35.721333,959,Catawba,7-Eleven #36071,Claremont,35.721333,-81.157307,24,0
-81.157037,35.325053,960,Gaston,Time Out Market,Dallas,35.325053,-81.157037,12,1
-81.156657,35.918373,961,Alexander,Taylorsville Gas House,Taylorsville,35.918373,-81.156657,12,0
-81.155237,36.202623,962,Wilkes,Fair Plains General Store,North Wilkesboro,36.202623,-81.155237,6,1
-81.155187,35.560893,963,Catawba,Super Food Mart,Maiden,35.560893,-81.155187,9,2
-81.154307,35.917883,964,Alexander,Taylorsville Daytona,Taylorville,35.917883,-81.154307,18,2
-81.154247,35.277533,965,Gaston,Jodies 66,Gastonia,35.277533,-81.154247,2,0
-81.154067,35.262493,966,Gaston,Quick RC Stop,Gastonia,35.262493,-81.154067,4,2
-81.152857,36.199373,967,Wilkes,Run In #107,North Wilkesboro,36.199373,-81.152857,24,0
-81.152827,35.436493,968,Lincoln,Lynn's Stop & Shop,Iron Station,35.436493,-81.152827,12,1
-81.152347,36.197643,969,Wilkes,Run In Food Store #811,North Wilkesboro,36.197643,-81.152347,12,0
-81.151397,36.194523,970,Wilkes,Royal's Mustang,North Wilkesboro,36.194523,-81.151397,7,1
-81.149817,35.673313,971,Catawba,Cubbard Express #10,Claremont,35.673313,-81.149817,8,4
-81.148737,35.326323,972,Gaston,Steve's  Superette,Dallas,35.326323,-81.148737,3,1
-81.148357,35.279563,973,Gaston,Fast Stop #305,Gastonia,35.279563,-81.148357,48,4
-81.147527,35.252593,974,Gaston,Times Turnaround #25,Gastonia,35.252593,-81.147527,24,2
-81.146667,35.714713,975,Catawba,Market Basket #27,Claremont,35.714713,-81.146667,3,0
-81.146457,36.154933,976,Wilkes,Market Basket,North Wilkesboro,36.154933,-81.146457,20,1
-81.146107,36.136143,977,Wilkes,Run In Food Store #809,Wilkesboro,36.136143,-81.146107,18,0
-81.145117,36.178693,978,Wilkes,Johnson Card Access,North Wilkesboro,36.178693,-81.145117,12,2
-81.144557,36.177223,979,Wilkes,Speedway #7904,North Wilkesboro,36.177223,-81.144557,24,2
-81.143717,35.184413,980,Gaston,The Corner Store,Gastonia,35.184413,-81.143717,12,1
-81.142637,36.130273,981,Wilkes,Oakwood's Grocery,Wilkesboro,36.130273,-81.142637,4,1
-81.140637,36.170263,982,Wilkes,Speedway #7902,North Wilkesboro,36.170263,-81.140637,30,4
-81.140297,35.279403,983,Gaston,Kingsway #6,Gastonia,35.279403,-81.140297,12,0
-81.135557,35.525483,984,Lincoln,Falls Quick Stop,Lincolnton,35.525483,-81.135557,8,1
-81.133967,35.260463,985,Gaston,Circle K #3934,Gastonia,35.260463,-81.133967,48,8
-81.133527,35.214063,986,Gaston,Kingsway #20,Gastonia,35.214063,-81.133527,12,0
-81.133367,35.266433,987,Gaston,Circle K #3972,Gastonia,35.266433,-81.133367,35,1
-81.127147,36.265433,988,Wilkes,Ashley Farm III,Hays,36.265433,-81.127147,12,1
-81.124787,36.508313,989,Montgomery,E-Zee Gas,Biscoe,36.508313,-81.124787,12,1
-81.124787,36.508313,990,Alleghany,Speedway #7947,Sparta,36.508313,-81.124787,24,2
-81.124107,36.507523,991,Alleghany,Betty's Mart,Sparta,36.507523,-81.124107,6,1
-81.123997,35.242563,992,Gaston,Circle K #3966,Gastonia,35.242563,-81.123997,24,2
-81.123407,35.241393,993,Gaston,Circle K,Gastonia,35.241393,-81.123407,36,2
-81.122547,36.506703,994,Alleghany,Sparta Exxon,Sparta,36.506703,-81.122547,12,1
-81.121847,35.901393,995,Alexander,All American Raceway,Taylorsville,35.901393,-81.121847,24,6
-81.121177,36.189123,996,Wilkes,OM Express,North Wilkesboro,36.189123,-81.121177,12,0
-81.119417,35.261763,997,Gaston,Sam's Club #6414,Gastonia,35.261763,-81.119417,24,0
-81.117847,36.252013,998,Wilkes,The Grocery Bag #2,Hays,36.252013,-81.117847,6,0
-81.117707,35.399793,999,Gaston,Country Corner,Dallas,35.399793,-81.117707,12,0
-81.11767,35.39984,1000,Gaston,Country Corner,Alexis,35.39984,-81.11767,12,1
-81.116867,35.258333,1001,Gaston,Speedway #7992,Gastonia,35.258333,-81.116867,36,2
-81.114987,35.605763,1002,Catawba,Buffalo Shoals Supermarket,Newton,35.605763,-81.114987,24,6
-81.112617,35.257613,1003,Gaston,Circle K #3973,Gastonia,35.257613,-81.112617,32,2
-81.110257,36.150173,1004,Wilkes,Run In #106,North Wilkesboro,36.150173,-81.110257,14,1
-81.107757,35.340903,1005,Gaston,C & S Pit Stop,Stanley,35.340903,-81.107757,7,0
-81.101677,35.267323,1006,Gaston,Tobaco House,Lowell,35.267323,-81.101677,5,0
-81.101377,35.223353,1007,Gaston,Ingco Express,Gastonia,35.223353,-81.101377,12,2
-81.100677,35.223273,1008,Gaston,Willis Food Store #8,Gastonia,35.223273,-81.100677,24,2
-81.100487,35.682053,1009,Catawba,Shop & Save,Claremont,35.682053,-81.100487,7,0
-81.099027,35.267933,1010,Gaston,The Corner Grocery,Lowell,35.267933,-81.099027,24,2
-81.098577,35.221653,1011,Gaston,Will's Food Store,Gastonia,35.221653,-81.098577,12,0
-81.098557,35.242973,1012,Gaston,Gates Food Mart,Gastonia,35.242973,-81.098557,12,0
-81.097687,35.370883,1013,Gaston,Stanley Corner Stop,Stanley,35.370883,-81.097687,13,1
-81.096307,36.198583,1014,Wilkes,J B Mart,North Wilkesboro,36.198583,-81.096307,20,0
-81.094557,35.737843,1015,Catawba,D Mart #4,Catawba,35.737843,-81.094557,24,3
-81.094257,35.348663,1016,Gaston,QSC Citgo Food Mart,Stanley,35.348663,-81.094257,12,1
-81.093707,35.472103,1017,Lincoln,East Lincoln Mini Mart,Iron Station,35.472103,-81.093707,14,2
-81.091427,35.355643,1018,Gaston,Wills Food Store #7,Stanley,35.355643,-81.091427,24,1
-81.091057,35.263913,1019,Gaston,Q S C Food Mart,Lowell,35.263913,-81.091057,36,4
-81.089167,35.900043,1020,Alexander,Cubbard Express #12,Hiddenite,35.900043,-81.089167,26,6
-81.086637,36.481353,1021,Alleghany,4 Brothers Food Store #500,Sparta,36.481353,-81.086637,18,2
-81.079967,35.251043,1022,Gaston,Kingsway #22,Cramerton,35.251043,-81.079967,24,5
-81.077937,35.306763,1023,Gaston,Wills Food Store 36,Mount Holly,35.306763,-81.077937,17,2
-81.074907,35.706323,1024,Catawba,Catawba  Food Market,Catawba,35.706323,-81.074907,5,0
-81.071217,35.290913,1025,Gaston,Kings Mart #2,Gastonia,35.290913,-81.071217,3,1
-81.069357,36.236133,1026,Wilkes,Buddy's Grocery,North Wilkesboro,36.236133,-81.069357,10,2
-81.066057,35.268423,1027,Gaston,Will's Food Store,Gastonia,35.268423,-81.066057,12,2
-81.061377,35.273683,1028,Gaston,Kings Mart,Gastonia,35.273683,-81.061377,6,0
-81.061187,35.311463,1029,Gaston,East Gaston Food Mart,Mount Holly,35.311463,-81.061187,12,2
-81.059297,35.279193,1030,Gaston,Nichol's Foods #4,Gastonia,35.279193,-81.059297,12,0
-81.055427,35.752983,1031,Iredell,I-40 Express,Statesville,35.752983,-81.055427,6,1
-81.053597,35.650943,1032,Catawba,Goldmine 66,Catawba,35.650943,-81.053597,18,1
-81.046467,35.255663,1033,Gaston,Nichols Food Mart,Belmont,35.255663,-81.046467,18,2
-81.044267,35.252863,1034,Gaston,Circle K #3957,Belmont,35.252863,-81.044267,40,8
-81.043437,36.338393,1035,Wilkes,Traphill BP,Traphill,36.338393,-81.043437,6,1
-81.041837,35.264473,1036,Gaston,Circle K #8379,Belmont,35.264473,-81.041837,36,4
-81.041437,35.239183,1037,Gaston,Nichols Food Store,Belmont,35.239183,-81.041437,12,0
-81.041327,35.857613,1038,Iredell,Little Market Basket,Stoney Point,35.857613,-81.041327,12,0
-81.039337,35.290643,1039,Gaston,Westview BP 1,Mount Holly,35.290643,-81.039337,15,0
-81.038977,35.232053,1040,Gaston,Handy Pantry,Belmont,35.232053,-81.038977,17,0
-81.037127,35.572633,1041,Catawba,General Store,Sherrills Ford,35.572633,-81.037127,24,2
-81.035987,35.160903,1042,Gaston,Harbortowne Marine,Belmont,35.160903,-81.035987,3,0
-81.035217,35.255293,1043,Gaston,Murphy USA #7315,Belmont,35.255293,-81.035217,24,2
-81.034387,35.309433,1044,Gaston,Will's Food Store,Mount Holly,35.309433,-81.034387,12,0
-81.030217,35.531623,1045,Lincoln,Denver Mart,Denver,35.531623,-81.030217,24,2
-81.028907,35.252153,1046,Gaston,Times Turnaround #39,Belmont,35.252153,-81.028907,48,2
-81.026567,35.259323,1047,Gaston,Times Turnaround #30,Mount Holly,35.259323,-81.026567,24,2
-81.026497,35.530803,1048,Lincoln,Sam's Mart,Denver,35.530803,-81.026497,30,2
-81.026237,35.276083,1049,Gaston,Express Mart,Mount Holly,35.276083,-81.026237,42,6
-81.023327,35.201803,1050,Gaston,Jim's Grocery,Belmont,35.201803,-81.023327,12,0
-81.016877,36.445253,1051,Alleghany,Williams Grocery,Glade Valley,36.445253,-81.016877,2,0
-81.015957,35.573283,1052,Catawba,Lake Norman Marina,Denver,35.573283,-81.015957,5,0
-81.013167,35.246233,1053,Gaston,Dales Superette,Belmont,35.246233,-81.013167,18,0
-81.012017,35.314533,1054,Gaston,Circle A Food Store,Mount Holly,35.314533,-81.012017,12,1
-81.011457,36.281223,1055,Wilkes,The Junction-Sheperds Crossroads,Roaring River,36.281223,-81.011457,10,2
-81.010317,35.392423,1056,Gaston,Quick Shop #129,Stanley,35.392423,-81.010317,18,2
-81.008857,35.389893,1057,Gaston,Lucia Food Mart,Stanley,35.389893,-81.008857,12,1
-81.004917,35.783313,1058,Iredell,Sunshine West Express,Statesville,35.783313,-81.004917,24,4
-81.004407,35.436993,1059,Lincoln,Jones Exxon Service,Stanley,35.436993,-81.004407,18,4
-81.003967,36.206023,1060,Wilkes,Porters Grocery,Roaring River,36.206023,-81.003967,12,1
-81.003607,35.095793,1061,Mecklenburg,Grab N Go,Charlotte,35.095793,-81.003607,24,1
-81.002497,35.574443,1062,Catawba,Mountain Creek Marina,Sherrills Ford,35.574443,-81.002497,2,0
-80.997267,35.771393,1063,Iredell,B & B Quick Stop,Statesville,35.771393,-80.997267,18,2
-80.996687,35.241133,1064,Mecklenburg,Nichols Food Stores #6,Charlotte,35.241133,-80.996687,19,1
-80.996617,35.445383,1065,Lincoln,Shop & Save,Denver,35.445383,-80.996617,18,2
-80.996357,35.446293,1066,Lincoln,Circle K #3946,Denver,35.446293,-80.996357,40,4
-80.995907,35.771863,1067,Iredell,Home Run Market,Statesville,35.771863,-80.995907,24,2
-80.994877,35.694923,1068,Catawba,Long Island Marina,Catawba,35.694923,-80.994877,2,0
-80.993717,35.479493,1069,Lincoln,Fair Grove Food,Denver,35.479493,-80.993717,24,0
-80.993177,35.478203,1070,Lincoln,Triangle Food Mart,Denver,35.478203,-80.993177,24,4
-80.991947,35.454453,1071,Lincoln,Jay's Corner Stores,Denver,35.454453,-80.991947,12,1
-80.988127,35.099573,1072,Mecklenburg,River Gate BP,Charlotte,35.099573,-80.988127,48,4
-80.988097,35.569733,1073,Catawba,The Boat Rack,Sherrills Ford,35.569733,-80.988097,4,0
-80.987707,36.404893,1074,Alleghany,Pro Stop,Glade Valley,36.404893,-80.987707,12,2
-80.987217,35.301533,1075,Mecklenburg,Catawba Village BP,Charlotte,35.301533,-80.987217,48,4
-80.987157,35.459043,1076,Lincoln,Westport Marina,Denver,35.459043,-80.987157,5,0
-80.985327,35.104843,1077,Mecklenburg,7-Eleven #35582,Charlotte,35.104843,-80.985327,48,2
-80.984967,35.762673,1078,Iredell,Fast Express,Statesville,35.762673,-80.984967,12,0
-80.983807,35.441813,1079,Lincoln,Beach's Grocery,Stanley,35.441813,-80.983807,18,4
-80.983387,35.241373,1080,Mecklenburg,Boulevard BP,Charlotte,35.241373,-80.983387,12,2
-80.982067,35.255573,1081,Mecklenburg,Mc Food Mart,Charlotte,35.255573,-80.982067,25,2
-80.978077,36.155153,1082,Wilkes,Parson Quick Stop,Roaring River,36.155153,-80.978077,6,3
-80.971427,36.059013,1083,Wilkes,Hwy 115 Gas N Grill,Union Grove,36.059013,-80.971427,12,2
-80.966657,35.937803,1084,Iredell,Phil's Food Mart,Statesville,35.937803,-80.966657,24,2
-80.966217,36.330463,1085,Wilkes,Tripletts Grocery,Elkin,36.330463,-80.966217,3,1
-80.962167,35.336683,1086,Mecklenburg,Mountain Island BP,Charlotte,35.336683,-80.962167,36,4
-80.960007,36.510093,1087,Alleghany,Ridgeview Grocery,Ennice,36.510093,-80.960007,2,1
-80.959977,35.172113,1088,Mecklenburg,7-Eleven #35584,Charlotte,35.172113,-80.959977,36,2
-80.956897,35.117263,1089,Mecklenburg,Gas-n-Go,Charlotte,35.117263,-80.956897,24,2
-80.954097,35.285713,1090,Mecklenburg,Jerry's Mini Market,Charlotte,35.285713,-80.954097,4,0
-80.952507,35.320413,1091,Mecklenburg,7-Eleven #35571,Charlotte,35.320413,-80.952507,12,0
-80.944737,35.735193,1092,Iredell,Quality Mart #50,Statesville,35.735193,-80.944737,12,0
-80.943747,36.560293,1093,Alleghany,18 Run-N,Ennice,36.560293,-80.943747,6,1
-80.942477,35.235583,1094,Mecklenburg,Airport Express,Charlotte,35.235583,-80.942477,24,4
-80.942067,35.130223,1095,Mecklenburg,Circle K #3975,Charlotte,35.130223,-80.942067,65,12
-80.940897,35.195273,1096,Mecklenburg,Purser Oil Co,Charlotte,35.195273,-80.940897,8,1
-80.940877,36.218793,1097,Wilkes,Foster's Grocery,Ronda,36.218793,-80.940877,12,2
-80.940427,35.869793,1098,Iredell,Yogi Food Mart #3,Statesville,35.869793,-80.940427,7,2
-80.939777,35.799033,1099,Iredell,Statesville Gas House,Statesville,35.799033,-80.939777,12,0
-80.939578,35.135641,1100,Mecklenburg,QuikTrip #1065,Charlotte,35.135641,-80.939578,0,0
-80.939337,35.237583,1101,Mecklenburg,7-Eleven #35562,Charlotte,35.237583,-80.939337,26,2
-80.938017,35.243983,1102,Mecklenburg,Times Turnaround,Charlotte,35.243983,-80.938017,24,2
-80.937977,35.796153,1103,Iredell,Fast Phil's #501,Statesville,35.796153,-80.937977,33,2
-80.937717,35.608783,1104,Iredell,Blue Parrot Bar & Grill,Mooresville,35.608783,-80.937717,6,0
-80.937657,35.242263,1105,Mecklenburg,Little Rock Food Mart,Charlotte,35.242263,-80.937657,12,2
-80.937067,35.273653,1106,Mecklenburg,Circle K #8357,Charlotte,35.273653,-80.937067,12,0
-80.936497,35.302023,1107,Mecklenburg,Coulwood Amoco,Charlotte,35.302023,-80.936497,18,1
-80.936467,35.608473,1108,Iredell,Apps & Taps,Mooresville,35.608473,-80.936467,2,0
-80.936347,35.246003,1109,Mecklenburg,7-Eleven #35569,Charlotte,35.246003,-80.936347,24,0
-80.935947,35.467783,1110,Mecklenburg,Pennisula Yacht Club,Cornelius,35.467783,-80.935947,2,1
-80.934657,35.792853,1111,Iredell,Chapmans Travelers,Statesville,35.792853,-80.934657,6,2
-80.933797,35.139173,1112,Mecklenburg,Circle K #3941,Charlotte,35.139173,-80.933797,36,4
-80.931557,36.156283,1113,Wilkes,Clingman Pit Stop,Ronda,36.156283,-80.931557,18,4
-80.929957,36.365133,1114,Wilkes,Thurmond Grocery,Thurmond,36.365133,-80.929957,5,1
-80.929837,35.189833,1115,Mecklenburg,7-Eleven #35561,Charlotte,35.189833,-80.929837,24,4
-80.929017,35.190233,1116,Mecklenburg,Yorkmont Plaza BP,Charlotte,35.190233,-80.929017,36,4
-80.928457,35.144863,1117,Mecklenburg,7-Eleven #35583,Charlotte,35.144863,-80.928457,60,4
-80.928047,36.178373,1118,Wilkes,HG Greene's General Store,Ronda,36.178373,-80.928047,12,1
-80.926007,35.115233,1119,Mecklenburg,7-Eleven #35546,Charlotte,35.115233,-80.926007,48,4
-80.925627,35.147143,1120,Mecklenburg,Arrowood Corner,Charlotte,35.147143,-80.925627,24,2
-80.925457,35.230033,1121,Mecklenburg,7-Eleven #35568,Charlotte,35.230033,-80.925457,30,4
-80.925077,35.148423,1122,Mecklenburg,Silver Express,Charlotte,35.148423,-80.925077,24,0
-80.921367,35.236823,1123,Mecklenburg,Sam's Mart #77,Charlotte,35.236823,-80.921367,36,2
-80.920747,35.113363,1124,Mecklenburg,Westinghouse BP,Charlotte,35.113363,-80.920747,24,4
-80.920107,36.362583,1125,Wilkes,Foothill Grocery,Thurman,36.362583,-80.920107,6,2
-80.919677,35.783163,1126,Iredell,Good Deal Food Mart,Statesville,35.783163,-80.919677,12,0
-80.919147,35.828623,1127,Iredell,Sunshine Express,Statesville,35.828623,-80.919147,12,2
-80.918937,35.240173,1128,Mecklenburg,Mulberry Exxon,Charlotte,35.240173,-80.918937,36,4
-80.918177,35.117553,1129,Mecklenburg,Quick Fuel Fleet Services,Charlotte,35.117553,-80.918177,4,6
-80.916937,35.426293,1130,Mecklenburg,Times Turn Around,Huntersville,35.426293,-80.916937,42,1
-80.915967,35.765293,1131,Iredell,Buffalo Shoals Card Lock,Statesville,35.765293,-80.915967,1,3
-80.914537,35.602373,1132,Iredell,Home Run Market,Mooresville,35.602373,-80.914537,24,1
-80.912867,35.602983,1133,Iredell,Lake Norman Grocery,Mooresville,35.602983,-80.912867,37,1
-80.909397,35.782073,1134,Iredell,Samirs #17,Statesville,35.782073,-80.909397,12,0
-80.907827,35.210463,1135,Mecklenburg,Charlotte Express Mart,Charlotte,35.210463,-80.907827,12,0
-80.907567,35.804123,1136,Iredell,Raymer Oil Co.,Statesville,35.804123,-80.907567,24,0
